{
  "routeId": "100100063",
  "collectedAt": "2026-04-14T02:48:18.476Z",
  "stops": [
    {
      "routeId": "100100063",
      "routeNo": "402",
      "seq": 1,
      "stationId": "123000354",
      "arsId": "24446",
      "name": "장지공영차고지",
      "lat": 37.480507,
      "lng": 127.135886
    },
    {
      "routeId": "100100063",
      "routeNo": "402",
      "seq": 2,
      "stationId": "123000356",
      "arsId": "24448",
      "name": "아이코리아",
      "lat": 37.480972,
      "lng": 127.1334
    },
    {
      "routeId": "100100063",
      "routeNo": "402",
      "seq": 3,
      "stationId": "123000372",
      "arsId": "24464",
      "name": "송파글마루도서관.버들어린이집",
      "lat": 37.481607,
      "lng": 127.131555
    },
    {
      "routeId": "100100063",
      "routeNo": "402",
      "seq": 4,
      "stationId": "123000375",
      "arsId": "24467",
      "name": "문현고등학교",
      "lat": 37.4807091324,
      "lng": 127.1292061629
    },
    {
      "routeId": "100100063",
      "routeNo": "402",
      "seq": 5,
      "stationId": "123000382",
      "arsId": "24475",
      "name": "장지역.가든파이브라이프동",
      "lat": 37.4790724082,
      "lng": 127.1246144045
    },
    {
      "routeId": "100100063",
      "routeNo": "402",
      "seq": 6,
      "stationId": "123000381",
      "arsId": "24473",
      "name": "가든파이브웍스동",
      "lat": 37.4782546079,
      "lng": 127.1212593757
    },
    {
      "routeId": "100100063",
      "routeNo": "402",
      "seq": 7,
      "stationId": "123000384",
      "arsId": "24477",
      "name": "가든파이프툴동",
      "lat": 37.4791477338,
      "lng": 127.1193612432
    },
    {
      "routeId": "100100063",
      "routeNo": "402",
      "seq": 8,
      "stationId": "122000696",
      "arsId": "23393",
      "name": "강남한양수자인아파트",
      "lat": 37.478158,
      "lng": 127.11335
    },
    {
      "routeId": "100100063",
      "routeNo": "402",
      "seq": 9,
      "stationId": "122000720",
      "arsId": "23442",
      "name": "세곡2지구3.4단지",
      "lat": 37.47693,
      "lng": 127.110063
    },
    {
      "routeId": "100100063",
      "routeNo": "402",
      "seq": 10,
      "stationId": "122000404",
      "arsId": "23527",
      "name": "디아크리온강남아파트",
      "lat": 37.4760978962,
      "lng": 127.1076846516
    },
    {
      "routeId": "100100063",
      "routeNo": "402",
      "seq": 11,
      "stationId": "122000743",
      "arsId": "23440",
      "name": "LH수서아파트",
      "lat": 37.479078,
      "lng": 127.105708
    },
    {
      "routeId": "100100063",
      "routeNo": "402",
      "seq": 12,
      "stationId": "122000318",
      "arsId": "23425",
      "name": "쟁골마을",
      "lat": 37.481887,
      "lng": 127.105076
    },
    {
      "routeId": "100100063",
      "routeNo": "402",
      "seq": 13,
      "stationId": "122000718",
      "arsId": "23150",
      "name": "고속철도수서역",
      "lat": 37.4847973786,
      "lng": 127.1041791055
    },
    {
      "routeId": "100100063",
      "routeNo": "402",
      "seq": 14,
      "stationId": "122000297",
      "arsId": "23404",
      "name": "수서역1번출구",
      "lat": 37.4871885183,
      "lng": 127.1007358421
    },
    {
      "routeId": "100100063",
      "routeNo": "402",
      "seq": 15,
      "stationId": "122000299",
      "arsId": "23406",
      "name": "궁마을",
      "lat": 37.485427,
      "lng": 127.097328
    },
    {
      "routeId": "100100063",
      "routeNo": "402",
      "seq": 16,
      "stationId": "122000348",
      "arsId": "23465",
      "name": "태화기독교사회복지관",
      "lat": 37.4845282141,
      "lng": 127.0933527923
    },
    {
      "routeId": "100100063",
      "routeNo": "402",
      "seq": 17,
      "stationId": "122000276",
      "arsId": "23380",
      "name": "수서삼성아파트앞",
      "lat": 37.4843993977,
      "lng": 127.0909893034
    },
    {
      "routeId": "100100063",
      "routeNo": "402",
      "seq": 18,
      "stationId": "122000277",
      "arsId": "23381",
      "name": "일원본동주민센터",
      "lat": 37.4834885153,
      "lng": 127.0847497652
    },
    {
      "routeId": "100100063",
      "routeNo": "402",
      "seq": 19,
      "stationId": "122000278",
      "arsId": "23382",
      "name": "푸른마을아파트앞",
      "lat": 37.4829129209,
      "lng": 127.0805834065
    },
    {
      "routeId": "100100063",
      "routeNo": "402",
      "seq": 20,
      "stationId": "122000246",
      "arsId": "23350",
      "name": "개포자이프레지던스",
      "lat": 37.483766,
      "lng": 127.069256
    },
    {
      "routeId": "100100063",
      "routeNo": "402",
      "seq": 21,
      "stationId": "122000249",
      "arsId": "23353",
      "name": "개포주공5단지경기여고",
      "lat": 37.4867075784,
      "lng": 127.0674711689
    },
    {
      "routeId": "100100063",
      "routeNo": "402",
      "seq": 22,
      "stationId": "122000250",
      "arsId": "23354",
      "name": "개포동역6번출구.개포시장",
      "lat": 37.488545,
      "lng": 127.06658
    },
    {
      "routeId": "100100063",
      "routeNo": "402",
      "seq": 23,
      "stationId": "122000252",
      "arsId": "23356",
      "name": "개포시장.개포5단지상가",
      "lat": 37.489411,
      "lng": 127.068631
    },
    {
      "routeId": "100100063",
      "routeNo": "402",
      "seq": 24,
      "stationId": "122000254",
      "arsId": "23358",
      "name": "개포6단지앞",
      "lat": 37.489962,
      "lng": 127.07042
    },
    {
      "routeId": "100100063",
      "routeNo": "402",
      "seq": 25,
      "stationId": "122000291",
      "arsId": "23395",
      "name": "대치아파트.대모산입구역3번출구",
      "lat": 37.4924140029,
      "lng": 127.0724873208
    },
    {
      "routeId": "100100063",
      "routeNo": "402",
      "seq": 26,
      "stationId": "122000134",
      "arsId": "23237",
      "name": "은마아파트",
      "lat": 37.4957666584,
      "lng": 127.0669737834
    },
    {
      "routeId": "100100063",
      "routeNo": "402",
      "seq": 27,
      "stationId": "122000123",
      "arsId": "23226",
      "name": "대치역1번출구",
      "lat": 37.4938592964,
      "lng": 127.0614984174
    },
    {
      "routeId": "100100063",
      "routeNo": "402",
      "seq": 28,
      "stationId": "122000124",
      "arsId": "23227",
      "name": "래미안대치팰리스",
      "lat": 37.4925595861,
      "lng": 127.0585796232
    },
    {
      "routeId": "100100063",
      "routeNo": "402",
      "seq": 29,
      "stationId": "122000116",
      "arsId": "23219",
      "name": "도곡역2번출구.동부센트레빌",
      "lat": 37.4915855937,
      "lng": 127.0565229085
    },
    {
      "routeId": "100100063",
      "routeNo": "402",
      "seq": 30,
      "stationId": "122000225",
      "arsId": "23329",
      "name": "숙명여고",
      "lat": 37.489722,
      "lng": 127.05237
    },
    {
      "routeId": "100100063",
      "routeNo": "402",
      "seq": 31,
      "stationId": "122000212",
      "arsId": "23316",
      "name": "매봉삼성아파트.SK리더스뷰",
      "lat": 37.4881449495,
      "lng": 127.0489606775
    },
    {
      "routeId": "100100063",
      "routeNo": "402",
      "seq": 32,
      "stationId": "122000213",
      "arsId": "23317",
      "name": "매봉역.양재최의원",
      "lat": 37.4861642605,
      "lng": 127.0445616798
    },
    {
      "routeId": "100100063",
      "routeNo": "402",
      "seq": 33,
      "stationId": "122000214",
      "arsId": "23318",
      "name": "양재역말죽거리.강남베드로병원",
      "lat": 37.4852510407,
      "lng": 127.0379686178
    },
    {
      "routeId": "100100063",
      "routeNo": "402",
      "seq": 34,
      "stationId": "121000006",
      "arsId": "22006",
      "name": "뱅뱅사거리",
      "lat": 37.486653,
      "lng": 127.033097
    },
    {
      "routeId": "100100063",
      "routeNo": "402",
      "seq": 35,
      "stationId": "121000008",
      "arsId": "22008",
      "name": "래미안아파트.파이낸셜뉴스",
      "lat": 37.491087,
      "lng": 127.030987
    },
    {
      "routeId": "100100063",
      "routeNo": "402",
      "seq": 36,
      "stationId": "121000010",
      "arsId": "22010",
      "name": "신분당선강남역",
      "lat": 37.494993,
      "lng": 127.029112
    },
    {
      "routeId": "100100063",
      "routeNo": "402",
      "seq": 37,
      "stationId": "121000012",
      "arsId": "22012",
      "name": "지하철2호선강남역",
      "lat": 37.500785,
      "lng": 127.02637
    },
    {
      "routeId": "100100063",
      "routeNo": "402",
      "seq": 38,
      "stationId": "121000014",
      "arsId": "22014",
      "name": "논현역",
      "lat": 37.506367,
      "lng": 127.023728
    },
    {
      "routeId": "100100063",
      "routeNo": "402",
      "seq": 39,
      "stationId": "121000016",
      "arsId": "22016",
      "name": "신사역",
      "lat": 37.512972,
      "lng": 127.020607
    },
    {
      "routeId": "100100063",
      "routeNo": "402",
      "seq": 40,
      "stationId": "122000408",
      "arsId": "23531",
      "name": "한남대교전망카페",
      "lat": 37.524552,
      "lng": 127.015683
    },
    {
      "routeId": "100100063",
      "routeNo": "402",
      "seq": 41,
      "stationId": "102000072",
      "arsId": "03166",
      "name": "한남오거리",
      "lat": 37.5328478217,
      "lng": 127.0083126426
    },
    {
      "routeId": "100100063",
      "routeNo": "402",
      "seq": 42,
      "stationId": "102000068",
      "arsId": "03162",
      "name": "순천향대학병원",
      "lat": 37.5364422432,
      "lng": 127.0057302453
    },
    {
      "routeId": "100100063",
      "routeNo": "402",
      "seq": 43,
      "stationId": "102000066",
      "arsId": "03160",
      "name": "서울중부기술교육원.블루스퀘어",
      "lat": 37.5416918639,
      "lng": 127.0033851827
    },
    {
      "routeId": "100100063",
      "routeNo": "402",
      "seq": 44,
      "stationId": "102000064",
      "arsId": "03158",
      "name": "장충단로입구",
      "lat": 37.545795,
      "lng": 127.002202
    },
    {
      "routeId": "100100063",
      "routeNo": "402",
      "seq": 45,
      "stationId": "102000065",
      "arsId": "03159",
      "name": "남산맨션아파트.남산예술원",
      "lat": 37.544437,
      "lng": 127.00204
    },
    {
      "routeId": "100100063",
      "routeNo": "402",
      "seq": 46,
      "stationId": "102000081",
      "arsId": "03175",
      "name": "하얏트호텔",
      "lat": 37.541753,
      "lng": 126.996128
    },
    {
      "routeId": "100100063",
      "routeNo": "402",
      "seq": 47,
      "stationId": "102000079",
      "arsId": "03173",
      "name": "남산야외식물원입구",
      "lat": 37.5427038827,
      "lng": 126.9927901963
    },
    {
      "routeId": "100100063",
      "routeNo": "402",
      "seq": 48,
      "stationId": "102000250",
      "arsId": "03343",
      "name": "용암초등학교.이태원2동주민센터",
      "lat": 37.5448496669,
      "lng": 126.9909320571
    },
    {
      "routeId": "100100063",
      "routeNo": "402",
      "seq": 49,
      "stationId": "102000077",
      "arsId": "03171",
      "name": "용산2가동주민센터.보성여중고",
      "lat": 37.5463968458,
      "lng": 126.9858399758
    },
    {
      "routeId": "100100063",
      "routeNo": "402",
      "seq": 50,
      "stationId": "102000075",
      "arsId": "03169",
      "name": "후암약수터",
      "lat": 37.54869,
      "lng": 126.98432
    },
    {
      "routeId": "100100063",
      "routeNo": "402",
      "seq": 51,
      "stationId": "102000073",
      "arsId": "03167",
      "name": "남산도서관.용산도서관",
      "lat": 37.552282,
      "lng": 126.980835
    },
    {
      "routeId": "100100063",
      "routeNo": "402",
      "seq": 52,
      "stationId": "101000111",
      "arsId": "02215",
      "name": "백범광장",
      "lat": 37.555737,
      "lng": 126.980093
    },
    {
      "routeId": "100100063",
      "routeNo": "402",
      "seq": 53,
      "stationId": "101000265",
      "arsId": "02285",
      "name": "남산공원.구힐튼호텔",
      "lat": 37.5566267411,
      "lng": 126.9767113404
    },
    {
      "routeId": "100100063",
      "routeNo": "402",
      "seq": 54,
      "stationId": "101000029",
      "arsId": "02124",
      "name": "숭례문.남대문시장8번출입구",
      "lat": 37.5588723988,
      "lng": 126.9759976615
    },
    {
      "routeId": "100100063",
      "routeNo": "402",
      "seq": 55,
      "stationId": "101000033",
      "arsId": "02128",
      "name": "소공동주민센터",
      "lat": 37.562197167,
      "lng": 126.97644367
    },
    {
      "routeId": "100100063",
      "routeNo": "402",
      "seq": 56,
      "stationId": "101900006",
      "arsId": "02507",
      "name": "시청역1호선.서울시청",
      "lat": 37.5673960903,
      "lng": 126.977339075
    },
    {
      "routeId": "100100063",
      "routeNo": "402",
      "seq": 57,
      "stationId": "101000290",
      "arsId": "02286",
      "name": "시청앞.덕수궁",
      "lat": 37.5662122834,
      "lng": 126.9768355729
    },
    {
      "routeId": "100100063",
      "routeNo": "402",
      "seq": 58,
      "stationId": "101000035",
      "arsId": "02132",
      "name": "시청역8번출구",
      "lat": 37.562764205,
      "lng": 126.976148714
    },
    {
      "routeId": "100100063",
      "routeNo": "402",
      "seq": 59,
      "stationId": "101000005",
      "arsId": "02005",
      "name": "서울역버스환승센터",
      "lat": 37.555388989,
      "lng": 126.9727238221
    },
    {
      "routeId": "100100063",
      "routeNo": "402",
      "seq": 60,
      "stationId": "101000028",
      "arsId": "02123",
      "name": "숭례문.서울역4번출구",
      "lat": 37.5580006528,
      "lng": 126.9736279452
    },
    {
      "routeId": "100100063",
      "routeNo": "402",
      "seq": 61,
      "stationId": "101000030",
      "arsId": "02125",
      "name": "숭례문남산방향",
      "lat": 37.5585581643,
      "lng": 126.9756720863
    },
    {
      "routeId": "100100063",
      "routeNo": "402",
      "seq": 62,
      "stationId": "101000266",
      "arsId": "02284",
      "name": "남산공원.구힐튼호텔",
      "lat": 37.5563677408,
      "lng": 126.976567168
    },
    {
      "routeId": "100100063",
      "routeNo": "402",
      "seq": 63,
      "stationId": "102000074",
      "arsId": "03168",
      "name": "남산도서관.용산도서관",
      "lat": 37.5520442521,
      "lng": 126.9811340112
    },
    {
      "routeId": "100100063",
      "routeNo": "402",
      "seq": 64,
      "stationId": "102000076",
      "arsId": "03170",
      "name": "후암약수터",
      "lat": 37.548395263,
      "lng": 126.9841668777
    },
    {
      "routeId": "100100063",
      "routeNo": "402",
      "seq": 65,
      "stationId": "102000078",
      "arsId": "03172",
      "name": "용산2가동주민센터.보성여중고",
      "lat": 37.5462598541,
      "lng": 126.9856317665
    },
    {
      "routeId": "100100063",
      "routeNo": "402",
      "seq": 66,
      "stationId": "102000249",
      "arsId": "03342",
      "name": "용암초등학교.이태원2동주민센터",
      "lat": 37.544673,
      "lng": 126.990733
    },
    {
      "routeId": "100100063",
      "routeNo": "402",
      "seq": 67,
      "stationId": "102000080",
      "arsId": "03174",
      "name": "남산야외식물원입구",
      "lat": 37.5425047481,
      "lng": 126.992916961
    },
    {
      "routeId": "100100063",
      "routeNo": "402",
      "seq": 68,
      "stationId": "102000082",
      "arsId": "03176",
      "name": "하얏트호텔",
      "lat": 37.540867,
      "lng": 126.997422
    },
    {
      "routeId": "100100063",
      "routeNo": "402",
      "seq": 69,
      "stationId": "102000067",
      "arsId": "03161",
      "name": "서울시중부기술교육원.블루스퀘어",
      "lat": 37.5411791533,
      "lng": 127.0031508133
    },
    {
      "routeId": "100100063",
      "routeNo": "402",
      "seq": 70,
      "stationId": "102000071",
      "arsId": "03165",
      "name": "순천향대학병원.한남오거리",
      "lat": 37.5354906847,
      "lng": 127.0057290409
    },
    {
      "routeId": "100100063",
      "routeNo": "402",
      "seq": 71,
      "stationId": "121000015",
      "arsId": "22015",
      "name": "신사역.푸른저축은행",
      "lat": 37.5141369914,
      "lng": 127.0200636589
    },
    {
      "routeId": "100100063",
      "routeNo": "402",
      "seq": 72,
      "stationId": "121000013",
      "arsId": "22013",
      "name": "논현역",
      "lat": 37.5072264964,
      "lng": 127.0230319441
    },
    {
      "routeId": "100100063",
      "routeNo": "402",
      "seq": 73,
      "stationId": "121000011",
      "arsId": "22011",
      "name": "지하철2호선강남역",
      "lat": 37.501795842,
      "lng": 127.0257426414
    },
    {
      "routeId": "100100063",
      "routeNo": "402",
      "seq": 74,
      "stationId": "121000009",
      "arsId": "22009",
      "name": "신분당선강남역",
      "lat": 37.495848,
      "lng": 127.028538
    },
    {
      "routeId": "100100063",
      "routeNo": "402",
      "seq": 75,
      "stationId": "121000007",
      "arsId": "22007",
      "name": "래미안아파트.파이낸셜뉴스",
      "lat": 37.491895,
      "lng": 127.030405
    },
    {
      "routeId": "100100063",
      "routeNo": "402",
      "seq": 76,
      "stationId": "121000005",
      "arsId": "22005",
      "name": "뱅뱅사거리",
      "lat": 37.487667,
      "lng": 127.032432
    },
    {
      "routeId": "100100063",
      "routeNo": "402",
      "seq": 77,
      "stationId": "121000194",
      "arsId": "22270",
      "name": "양재역.양재1동민원분소",
      "lat": 37.484769125,
      "lng": 127.0374188123
    },
    {
      "routeId": "100100063",
      "routeNo": "402",
      "seq": 78,
      "stationId": "122000219",
      "arsId": "23323",
      "name": "매봉역",
      "lat": 37.485917,
      "lng": 127.044855
    },
    {
      "routeId": "100100063",
      "routeNo": "402",
      "seq": 79,
      "stationId": "122000220",
      "arsId": "23324",
      "name": "도곡개포한신아파트",
      "lat": 37.48791,
      "lng": 127.049239
    },
    {
      "routeId": "100100063",
      "routeNo": "402",
      "seq": 80,
      "stationId": "122000223",
      "arsId": "23327",
      "name": "군인공제회관",
      "lat": 37.489211,
      "lng": 127.052019
    },
    {
      "routeId": "100100063",
      "routeNo": "402",
      "seq": 81,
      "stationId": "122000125",
      "arsId": "23228",
      "name": "도곡역3번출구",
      "lat": 37.4911818874,
      "lng": 127.0565474837
    },
    {
      "routeId": "100100063",
      "routeNo": "402",
      "seq": 82,
      "stationId": "122000126",
      "arsId": "23229",
      "name": "대치동우성아파트",
      "lat": 37.4925770923,
      "lng": 127.0596110202
    },
    {
      "routeId": "100100063",
      "routeNo": "402",
      "seq": 83,
      "stationId": "122000127",
      "arsId": "23230",
      "name": "대치역8번출구",
      "lat": 37.493865,
      "lng": 127.06223
    },
    {
      "routeId": "100100063",
      "routeNo": "402",
      "seq": 84,
      "stationId": "122000135",
      "arsId": "23238",
      "name": "대치동미도아파트",
      "lat": 37.4956049426,
      "lng": 127.0677076244
    },
    {
      "routeId": "100100063",
      "routeNo": "402",
      "seq": 85,
      "stationId": "122000256",
      "arsId": "23360",
      "name": "개원중학교.대모산입구역2번출구",
      "lat": 37.492262,
      "lng": 127.072156
    },
    {
      "routeId": "100100063",
      "routeNo": "402",
      "seq": 86,
      "stationId": "122000253",
      "arsId": "23357",
      "name": "양전초등학교",
      "lat": 37.490243,
      "lng": 127.070593
    },
    {
      "routeId": "100100063",
      "routeNo": "402",
      "seq": 87,
      "stationId": "122000251",
      "arsId": "23355",
      "name": "개포시장.개포5단지상가",
      "lat": 37.48952,
      "lng": 127.068071
    },
    {
      "routeId": "100100063",
      "routeNo": "402",
      "seq": 88,
      "stationId": "122000248",
      "arsId": "23352",
      "name": "개포동역7번출구.개포시장",
      "lat": 37.488648,
      "lng": 127.066165
    },
    {
      "routeId": "100100063",
      "routeNo": "402",
      "seq": 89,
      "stationId": "122000247",
      "arsId": "23351",
      "name": "경기여고",
      "lat": 37.48653,
      "lng": 127.067244
    },
    {
      "routeId": "100100063",
      "routeNo": "402",
      "seq": 90,
      "stationId": "122000245",
      "arsId": "23349",
      "name": "디에이치아너힐즈",
      "lat": 37.48373,
      "lng": 127.068697
    },
    {
      "routeId": "100100063",
      "routeNo": "402",
      "seq": 91,
      "stationId": "122000337",
      "arsId": "23449",
      "name": "일원동한솔아파트",
      "lat": 37.482544,
      "lng": 127.079314
    },
    {
      "routeId": "100100063",
      "routeNo": "402",
      "seq": 92,
      "stationId": "122000279",
      "arsId": "23383",
      "name": "상록수아파트앞",
      "lat": 37.4828046299,
      "lng": 127.0821222482
    },
    {
      "routeId": "100100063",
      "routeNo": "402",
      "seq": 93,
      "stationId": "122000280",
      "arsId": "23384",
      "name": "일원본동주민센터",
      "lat": 37.4833831017,
      "lng": 127.0859753943
    },
    {
      "routeId": "100100063",
      "routeNo": "402",
      "seq": 94,
      "stationId": "122000338",
      "arsId": "23450",
      "name": "시립수서청소년센터",
      "lat": 37.483863,
      "lng": 127.089107
    },
    {
      "routeId": "100100063",
      "routeNo": "402",
      "seq": 95,
      "stationId": "122000281",
      "arsId": "23385",
      "name": "수서119안전센터앞",
      "lat": 37.4842412879,
      "lng": 127.0938503097
    },
    {
      "routeId": "100100063",
      "routeNo": "402",
      "seq": 96,
      "stationId": "122000300",
      "arsId": "23407",
      "name": "궁마을",
      "lat": 37.4852808034,
      "lng": 127.0976066393
    },
    {
      "routeId": "100100063",
      "routeNo": "402",
      "seq": 97,
      "stationId": "122000301",
      "arsId": "23408",
      "name": "수서역6번출구",
      "lat": 37.4867911067,
      "lng": 127.1020425697
    },
    {
      "routeId": "100100063",
      "routeNo": "402",
      "seq": 98,
      "stationId": "122000717",
      "arsId": "23320",
      "name": "고속철도수서역",
      "lat": 37.484498,
      "lng": 127.103737
    },
    {
      "routeId": "100100063",
      "routeNo": "402",
      "seq": 99,
      "stationId": "122000319",
      "arsId": "23426",
      "name": "쟁골마을",
      "lat": 37.4826545844,
      "lng": 127.1043990475
    },
    {
      "routeId": "100100063",
      "routeNo": "402",
      "seq": 100,
      "stationId": "122000744",
      "arsId": "23441",
      "name": "LH수서아파트",
      "lat": 37.478608,
      "lng": 127.105347
    },
    {
      "routeId": "100100063",
      "routeNo": "402",
      "seq": 101,
      "stationId": "122000403",
      "arsId": "23526",
      "name": "래미안포레아파트",
      "lat": 37.4756585108,
      "lng": 127.1072950785
    },
    {
      "routeId": "100100063",
      "routeNo": "402",
      "seq": 102,
      "stationId": "122000698",
      "arsId": "23528",
      "name": "세곡2지구3.4단지",
      "lat": 37.476668,
      "lng": 127.110393
    },
    {
      "routeId": "100100063",
      "routeNo": "402",
      "seq": 103,
      "stationId": "122000695",
      "arsId": "23394",
      "name": "강남한양수자인아파트",
      "lat": 37.477818,
      "lng": 127.113478
    },
    {
      "routeId": "100100063",
      "routeNo": "402",
      "seq": 104,
      "stationId": "123000385",
      "arsId": "24478",
      "name": "가든파이브툴동",
      "lat": 37.478998,
      "lng": 127.119308
    },
    {
      "routeId": "100100063",
      "routeNo": "402",
      "seq": 105,
      "stationId": "123000380",
      "arsId": "24472",
      "name": "가든파이브웍스동",
      "lat": 37.478215,
      "lng": 127.121195
    },
    {
      "routeId": "100100063",
      "routeNo": "402",
      "seq": 106,
      "stationId": "123000383",
      "arsId": "24476",
      "name": "장지역.가든파이브라이프동",
      "lat": 37.479007,
      "lng": 127.124888
    },
    {
      "routeId": "100100063",
      "routeNo": "402",
      "seq": 107,
      "stationId": "123000374",
      "arsId": "24466",
      "name": "문현고등학교.송파파인타운5단지",
      "lat": 37.480632,
      "lng": 127.129475
    },
    {
      "routeId": "100100063",
      "routeNo": "402",
      "seq": 108,
      "stationId": "123000373",
      "arsId": "24465",
      "name": "송파글마루도서관.버들어린이집",
      "lat": 37.481598,
      "lng": 127.131337
    },
    {
      "routeId": "100100063",
      "routeNo": "402",
      "seq": 109,
      "stationId": "123000379",
      "arsId": "24471",
      "name": "아이코리아앞",
      "lat": 37.48096,
      "lng": 127.13364
    },
    {
      "routeId": "100100063",
      "routeNo": "402",
      "seq": 110,
      "stationId": "123000355",
      "arsId": "24447",
      "name": "장지공영차고지",
      "lat": 37.480562,
      "lng": 127.135645
    }
  ]
}