{
  "routeId": "100100064",
  "collectedAt": "2026-04-14T02:49:45.628Z",
  "stops": [
    {
      "routeId": "100100064",
      "routeNo": "406",
      "seq": 1,
      "stationId": "122000344",
      "arsId": "23458",
      "name": "구룡마을",
      "lat": 37.478975,
      "lng": 127.064041
    },
    {
      "routeId": "100100064",
      "routeNo": "406",
      "seq": 2,
      "stationId": "122000234",
      "arsId": "23338",
      "name": "개포파크빌리지",
      "lat": 37.477328,
      "lng": 127.057772
    },
    {
      "routeId": "100100064",
      "routeNo": "406",
      "seq": 3,
      "stationId": "122000345",
      "arsId": "23459",
      "name": "디에이치퍼스티어아이파크",
      "lat": 37.478381,
      "lng": 127.056741
    },
    {
      "routeId": "100100064",
      "routeNo": "406",
      "seq": 4,
      "stationId": "122000235",
      "arsId": "23339",
      "name": "구룡초교사거리",
      "lat": 37.4809034856,
      "lng": 127.0542007012
    },
    {
      "routeId": "100100064",
      "routeNo": "406",
      "seq": 5,
      "stationId": "122000236",
      "arsId": "23340",
      "name": "현대아파트경남아파트",
      "lat": 37.482875,
      "lng": 127.053115
    },
    {
      "routeId": "100100064",
      "routeNo": "406",
      "seq": 6,
      "stationId": "122000212",
      "arsId": "23316",
      "name": "매봉삼성아파트.SK리더스뷰",
      "lat": 37.4881449495,
      "lng": 127.0489606775
    },
    {
      "routeId": "100100064",
      "routeNo": "406",
      "seq": 7,
      "stationId": "122000213",
      "arsId": "23317",
      "name": "매봉역.양재최의원",
      "lat": 37.4861642605,
      "lng": 127.0445616798
    },
    {
      "routeId": "100100064",
      "routeNo": "406",
      "seq": 8,
      "stationId": "122000214",
      "arsId": "23318",
      "name": "양재역말죽거리.강남베드로병원",
      "lat": 37.4852510407,
      "lng": 127.0379686178
    },
    {
      "routeId": "100100064",
      "routeNo": "406",
      "seq": 9,
      "stationId": "121000053",
      "arsId": "22129",
      "name": "서초구청",
      "lat": 37.484277,
      "lng": 127.030748
    },
    {
      "routeId": "100100064",
      "routeNo": "406",
      "seq": 10,
      "stationId": "121000034",
      "arsId": "22110",
      "name": "서울시인재개발원입구",
      "lat": 37.483108,
      "lng": 127.022222
    },
    {
      "routeId": "100100064",
      "routeNo": "406",
      "seq": 11,
      "stationId": "121000077",
      "arsId": "22153",
      "name": "남부터미널.기쁨병원",
      "lat": 37.4819578926,
      "lng": 127.01686616
    },
    {
      "routeId": "100100064",
      "routeNo": "406",
      "seq": 12,
      "stationId": "121000076",
      "arsId": "22152",
      "name": "서초동예술의전당",
      "lat": 37.4796986297,
      "lng": 127.0108027917
    },
    {
      "routeId": "100100064",
      "routeNo": "406",
      "seq": 13,
      "stationId": "121000177",
      "arsId": "22253",
      "name": "방배동래미안아트힐.국립국악원",
      "lat": 37.477503,
      "lng": 127.006302
    },
    {
      "routeId": "100100064",
      "routeNo": "406",
      "seq": 14,
      "stationId": "121000168",
      "arsId": "22244",
      "name": "경남임광아파트",
      "lat": 37.4772,
      "lng": 127.000632
    },
    {
      "routeId": "100100064",
      "routeNo": "406",
      "seq": 15,
      "stationId": "121000170",
      "arsId": "22246",
      "name": "서울지방법무사회",
      "lat": 37.4800397349,
      "lng": 126.998755084
    },
    {
      "routeId": "100100064",
      "routeNo": "406",
      "seq": 16,
      "stationId": "121000153",
      "arsId": "22229",
      "name": "방배역.방배서리풀이편한세상",
      "lat": 37.483588,
      "lng": 126.99647
    },
    {
      "routeId": "100100064",
      "routeNo": "406",
      "seq": 17,
      "stationId": "121000154",
      "arsId": "22230",
      "name": "내방역2번출구",
      "lat": 37.4867753694,
      "lng": 126.9943843705
    },
    {
      "routeId": "100100064",
      "routeNo": "406",
      "seq": 18,
      "stationId": "121000192",
      "arsId": "22268",
      "name": "방배열린문화센터(방배4동주민센터)",
      "lat": 37.4905049074,
      "lng": 126.9920624118
    },
    {
      "routeId": "100100064",
      "routeNo": "406",
      "seq": 19,
      "stationId": "121000146",
      "arsId": "22222",
      "name": "방배사이길",
      "lat": 37.493328,
      "lng": 126.990277
    },
    {
      "routeId": "100100064",
      "routeNo": "406",
      "seq": 20,
      "stationId": "121000147",
      "arsId": "22223",
      "name": "방배동삼호아파트",
      "lat": 37.49653,
      "lng": 126.988245
    },
    {
      "routeId": "100100064",
      "routeNo": "406",
      "seq": 21,
      "stationId": "121000024",
      "arsId": "22024",
      "name": "구반포역.세화고등학교",
      "lat": 37.501735,
      "lng": 126.98907
    },
    {
      "routeId": "100100064",
      "routeNo": "406",
      "seq": 22,
      "stationId": "121000022",
      "arsId": "22022",
      "name": "신반포역.세화여중고",
      "lat": 37.503052,
      "lng": 126.994697
    },
    {
      "routeId": "100100064",
      "routeNo": "406",
      "seq": 23,
      "stationId": "121000303",
      "arsId": "22382",
      "name": "반포대교남단.한강시민공원입구",
      "lat": 37.5069439929,
      "lng": 127.0003902363
    },
    {
      "routeId": "100100064",
      "routeNo": "406",
      "seq": 24,
      "stationId": "102000061",
      "arsId": "03155",
      "name": "한강중학교",
      "lat": 37.52545,
      "lng": 126.992155
    },
    {
      "routeId": "100100064",
      "routeNo": "406",
      "seq": 25,
      "stationId": "102000059",
      "arsId": "03153",
      "name": "용산구청",
      "lat": 37.530303,
      "lng": 126.991163
    },
    {
      "routeId": "100100064",
      "routeNo": "406",
      "seq": 26,
      "stationId": "102000058",
      "arsId": "03152",
      "name": "국군재정관리단",
      "lat": 37.537318,
      "lng": 126.986848
    },
    {
      "routeId": "100100064",
      "routeNo": "406",
      "seq": 27,
      "stationId": "102000055",
      "arsId": "03149",
      "name": "이태원동남산대림아파트.용산동아파트",
      "lat": 37.539873,
      "lng": 126.987478
    },
    {
      "routeId": "100100064",
      "routeNo": "406",
      "seq": 28,
      "stationId": "102000054",
      "arsId": "03148",
      "name": "용암초등학교입구.이태원주공아파트",
      "lat": 37.544109,
      "lng": 126.988666
    },
    {
      "routeId": "100100064",
      "routeNo": "406",
      "seq": 29,
      "stationId": "101000049",
      "arsId": "02148",
      "name": "남산3호터널.정화예술대학교",
      "lat": 37.5595260891,
      "lng": 126.9826359346
    },
    {
      "routeId": "100100064",
      "routeNo": "406",
      "seq": 30,
      "stationId": "101000043",
      "arsId": "02142",
      "name": "명동.롯데영플라자",
      "lat": 37.562885,
      "lng": 126.982008
    },
    {
      "routeId": "100100064",
      "routeNo": "406",
      "seq": 31,
      "stationId": "101000040",
      "arsId": "02139",
      "name": "우리은행종로지점",
      "lat": 37.5678390393,
      "lng": 126.9828658628
    },
    {
      "routeId": "100100064",
      "routeNo": "406",
      "seq": 32,
      "stationId": "100000105",
      "arsId": "01201",
      "name": "조계사.종로경찰서",
      "lat": 37.5725223095,
      "lng": 126.9831555803
    },
    {
      "routeId": "100100064",
      "routeNo": "406",
      "seq": 33,
      "stationId": "100000035",
      "arsId": "01130",
      "name": "덕성여중고",
      "lat": 37.575768,
      "lng": 126.981972
    },
    {
      "routeId": "100100064",
      "routeNo": "406",
      "seq": 34,
      "stationId": "100000031",
      "arsId": "01126",
      "name": "세종문화회관",
      "lat": 37.573648,
      "lng": 126.976997
    },
    {
      "routeId": "100100064",
      "routeNo": "406",
      "seq": 35,
      "stationId": "101000290",
      "arsId": "02286",
      "name": "시청앞.덕수궁",
      "lat": 37.5662122834,
      "lng": 126.9768355729
    },
    {
      "routeId": "100100064",
      "routeNo": "406",
      "seq": 36,
      "stationId": "101000034",
      "arsId": "02131",
      "name": "삼성본관앞",
      "lat": 37.5620517519,
      "lng": 126.9759075283
    },
    {
      "routeId": "100100064",
      "routeNo": "406",
      "seq": 37,
      "stationId": "101000005",
      "arsId": "02005",
      "name": "서울역버스환승센터",
      "lat": 37.555388989,
      "lng": 126.9727238221
    },
    {
      "routeId": "100100064",
      "routeNo": "406",
      "seq": 38,
      "stationId": "101000027",
      "arsId": "02122",
      "name": "숭례문",
      "lat": 37.5584195299,
      "lng": 126.9740436876
    },
    {
      "routeId": "100100064",
      "routeNo": "406",
      "seq": 39,
      "stationId": "101000114",
      "arsId": "02219",
      "name": "남대문시장앞.이회영활동터",
      "lat": 37.5609394169,
      "lng": 126.978580386
    },
    {
      "routeId": "100100064",
      "routeNo": "406",
      "seq": 40,
      "stationId": "101000045",
      "arsId": "02144",
      "name": "신세계백화점",
      "lat": 37.561128,
      "lng": 126.981432
    },
    {
      "routeId": "100100064",
      "routeNo": "406",
      "seq": 41,
      "stationId": "101000048",
      "arsId": "02147",
      "name": "남산3호터널",
      "lat": 37.558312,
      "lng": 126.98274
    },
    {
      "routeId": "100100064",
      "routeNo": "406",
      "seq": 42,
      "stationId": "102000056",
      "arsId": "03150",
      "name": "용산한신아파트",
      "lat": 37.5398054732,
      "lng": 126.9871086322
    },
    {
      "routeId": "100100064",
      "routeNo": "406",
      "seq": 43,
      "stationId": "102000057",
      "arsId": "03151",
      "name": "해방촌",
      "lat": 37.537816,
      "lng": 126.986605
    },
    {
      "routeId": "100100064",
      "routeNo": "406",
      "seq": 44,
      "stationId": "102000060",
      "arsId": "03154",
      "name": "용산구청",
      "lat": 37.529405,
      "lng": 126.99116
    },
    {
      "routeId": "100100064",
      "routeNo": "406",
      "seq": 45,
      "stationId": "102000062",
      "arsId": "03156",
      "name": "한강중학교",
      "lat": 37.5245025908,
      "lng": 126.9924287738
    },
    {
      "routeId": "100100064",
      "routeNo": "406",
      "seq": 46,
      "stationId": "121000302",
      "arsId": "22381",
      "name": "반포대교남단.한강시민공원입구",
      "lat": 37.5078106042,
      "lng": 126.9994684234
    },
    {
      "routeId": "100100064",
      "routeNo": "406",
      "seq": 47,
      "stationId": "121000021",
      "arsId": "22021",
      "name": "신반포역.세화여중고",
      "lat": 37.5034578584,
      "lng": 126.9956954487
    },
    {
      "routeId": "100100064",
      "routeNo": "406",
      "seq": 48,
      "stationId": "121000023",
      "arsId": "22023",
      "name": "구반포역.세화고등학교",
      "lat": 37.5020371598,
      "lng": 126.9899765867
    },
    {
      "routeId": "100100064",
      "routeNo": "406",
      "seq": 49,
      "stationId": "121000145",
      "arsId": "22221",
      "name": "삼호아파트",
      "lat": 37.496634,
      "lng": 126.987806
    },
    {
      "routeId": "100100064",
      "routeNo": "406",
      "seq": 50,
      "stationId": "121000148",
      "arsId": "22224",
      "name": "가야메디컬센터",
      "lat": 37.493391877,
      "lng": 126.9898749163
    },
    {
      "routeId": "100100064",
      "routeNo": "406",
      "seq": 51,
      "stationId": "121000193",
      "arsId": "22269",
      "name": "방배열린문화센터(방배4동주민센터)",
      "lat": 37.4906184149,
      "lng": 126.991605527
    },
    {
      "routeId": "100100064",
      "routeNo": "406",
      "seq": 52,
      "stationId": "121000155",
      "arsId": "22231",
      "name": "내방역",
      "lat": 37.4866230686,
      "lng": 126.9940948938
    },
    {
      "routeId": "100100064",
      "routeNo": "406",
      "seq": 53,
      "stationId": "121000156",
      "arsId": "22232",
      "name": "방배1동주민센터.방배아크로타워",
      "lat": 37.4834494617,
      "lng": 126.9961463518
    },
    {
      "routeId": "100100064",
      "routeNo": "406",
      "seq": 54,
      "stationId": "121000171",
      "arsId": "22247",
      "name": "현대멤피스2차아파트",
      "lat": 37.4798144548,
      "lng": 126.998445273
    },
    {
      "routeId": "100100064",
      "routeNo": "406",
      "seq": 55,
      "stationId": "121000169",
      "arsId": "22245",
      "name": "방배그랑자이아파트",
      "lat": 37.477254,
      "lng": 127.000283
    },
    {
      "routeId": "100100064",
      "routeNo": "406",
      "seq": 56,
      "stationId": "121000186",
      "arsId": "22262",
      "name": "방배동래미안아트힐.국립국악원",
      "lat": 37.477275,
      "lng": 127.006845
    },
    {
      "routeId": "100100064",
      "routeNo": "406",
      "seq": 57,
      "stationId": "121000075",
      "arsId": "22151",
      "name": "서초동예술의전당",
      "lat": 37.479433,
      "lng": 127.011232
    },
    {
      "routeId": "100100064",
      "routeNo": "406",
      "seq": 58,
      "stationId": "121000078",
      "arsId": "22154",
      "name": "남부터미널.기쁨병원",
      "lat": 37.4817361133,
      "lng": 127.0176022215
    },
    {
      "routeId": "100100064",
      "routeNo": "406",
      "seq": 59,
      "stationId": "121000035",
      "arsId": "22111",
      "name": "서울시인재개발원.한우리문화센터",
      "lat": 37.482652,
      "lng": 127.021742
    },
    {
      "routeId": "100100064",
      "routeNo": "406",
      "seq": 60,
      "stationId": "121000054",
      "arsId": "22130",
      "name": "서초구청",
      "lat": 37.483857,
      "lng": 127.030587
    },
    {
      "routeId": "100100064",
      "routeNo": "406",
      "seq": 61,
      "stationId": "121000194",
      "arsId": "22270",
      "name": "양재역.양재1동민원분소",
      "lat": 37.484769125,
      "lng": 127.0374188123
    },
    {
      "routeId": "100100064",
      "routeNo": "406",
      "seq": 62,
      "stationId": "122000219",
      "arsId": "23323",
      "name": "매봉역",
      "lat": 37.485917,
      "lng": 127.044855
    },
    {
      "routeId": "100100064",
      "routeNo": "406",
      "seq": 63,
      "stationId": "122000220",
      "arsId": "23324",
      "name": "도곡개포한신아파트",
      "lat": 37.48791,
      "lng": 127.049239
    },
    {
      "routeId": "100100064",
      "routeNo": "406",
      "seq": 64,
      "stationId": "122000221",
      "arsId": "23325",
      "name": "개포한신.우성4차아파트",
      "lat": 37.4870851555,
      "lng": 127.050372953
    },
    {
      "routeId": "100100064",
      "routeNo": "406",
      "seq": 65,
      "stationId": "122000259",
      "arsId": "23363",
      "name": "현대아파트",
      "lat": 37.4822653767,
      "lng": 127.0528285196
    },
    {
      "routeId": "100100064",
      "routeNo": "406",
      "seq": 66,
      "stationId": "122000260",
      "arsId": "23364",
      "name": "개포래미안포레스트",
      "lat": 37.479942,
      "lng": 127.054609
    },
    {
      "routeId": "100100064",
      "routeNo": "406",
      "seq": 67,
      "stationId": "122000333",
      "arsId": "23445",
      "name": "개포우성아파트",
      "lat": 37.4765644257,
      "lng": 127.0578638641
    },
    {
      "routeId": "100100064",
      "routeNo": "406",
      "seq": 68,
      "stationId": "122000262",
      "arsId": "23366",
      "name": "구룡산입구",
      "lat": 37.477298,
      "lng": 127.061771
    }
  ]
}