{
  "routeId": "100100552",
  "routeNo": "7739",
  "collectedAt": "2026-05-15T05:03:41.445Z",
  "stops": [
    {
      "routeId": "100100552",
      "routeNo": "7739",
      "seq": 1,
      "stationId": "111000907",
      "arsId": "35331",
      "name": "은평공영차고지",
      "lat": 37.591802,
      "lng": 126.88381
    },
    {
      "routeId": "100100552",
      "routeNo": "7739",
      "seq": 2,
      "stationId": "111000001",
      "arsId": "12001",
      "name": "덕은교.은평차고지앞",
      "lat": 37.5895807424,
      "lng": 126.8840903371
    },
    {
      "routeId": "100100552",
      "routeNo": "7739",
      "seq": 3,
      "stationId": "111000003",
      "arsId": "12003",
      "name": "수색교",
      "lat": 37.585759,
      "lng": 126.888672
    },
    {
      "routeId": "100100552",
      "routeNo": "7739",
      "seq": 4,
      "stationId": "111000005",
      "arsId": "12005",
      "name": "수색역앞",
      "lat": 37.5832230348,
      "lng": 126.8932380184
    },
    {
      "routeId": "100100552",
      "routeNo": "7739",
      "seq": 5,
      "stationId": "111000007",
      "arsId": "12007",
      "name": "디지털미디어시티역",
      "lat": 37.579047,
      "lng": 126.900505
    },
    {
      "routeId": "100100552",
      "routeNo": "7739",
      "seq": 6,
      "stationId": "112000001",
      "arsId": "13001",
      "name": "북가좌동삼거리",
      "lat": 37.5754463835,
      "lng": 126.9045265135
    },
    {
      "routeId": "100100552",
      "routeNo": "7739",
      "seq": 7,
      "stationId": "112000422",
      "arsId": "13331",
      "name": "DMC래미안e-편한세상3단지",
      "lat": 37.5750474159,
      "lng": 126.9070551106
    },
    {
      "routeId": "100100552",
      "routeNo": "7739",
      "seq": 8,
      "stationId": "112000158",
      "arsId": "13241",
      "name": "DMC한양아파트",
      "lat": 37.57649,
      "lng": 126.90852
    },
    {
      "routeId": "100100552",
      "routeNo": "7739",
      "seq": 9,
      "stationId": "112000100",
      "arsId": "13183",
      "name": "DMC래미안e편한세상2.4단지",
      "lat": 37.576740896,
      "lng": 126.9109918398
    },
    {
      "routeId": "100100552",
      "routeNo": "7739",
      "seq": 10,
      "stationId": "112000102",
      "arsId": "13185",
      "name": "북가좌삼호.DMC아이파크아파트",
      "lat": 37.5752684365,
      "lng": 126.9133099754
    },
    {
      "routeId": "100100552",
      "routeNo": "7739",
      "seq": 11,
      "stationId": "112000106",
      "arsId": "13189",
      "name": "DMC파크뷰자이.별동상가",
      "lat": 37.575188,
      "lng": 126.916089
    },
    {
      "routeId": "100100552",
      "routeNo": "7739",
      "seq": 12,
      "stationId": "112000415",
      "arsId": "13327",
      "name": "가재울초등학교",
      "lat": 37.5739820992,
      "lng": 126.9189766576
    },
    {
      "routeId": "100100552",
      "routeNo": "7739",
      "seq": 13,
      "stationId": "112000121",
      "arsId": "13204",
      "name": "연가교",
      "lat": 37.5725614324,
      "lng": 126.922182071
    },
    {
      "routeId": "100100552",
      "routeNo": "7739",
      "seq": 14,
      "stationId": "112000143",
      "arsId": "13226",
      "name": "홍남교.서대문구행복그린센터",
      "lat": 37.5746380958,
      "lng": 126.9269827008
    },
    {
      "routeId": "100100552",
      "routeNo": "7739",
      "seq": 15,
      "stationId": "112000141",
      "arsId": "13224",
      "name": "서대문구보훈회관",
      "lat": 37.5717018011,
      "lng": 126.9293638634
    },
    {
      "routeId": "100100552",
      "routeNo": "7739",
      "seq": 16,
      "stationId": "112000139",
      "arsId": "13222",
      "name": "연희동자치회관",
      "lat": 37.569517,
      "lng": 126.931267
    },
    {
      "routeId": "100100552",
      "routeNo": "7739",
      "seq": 17,
      "stationId": "112000068",
      "arsId": "13151",
      "name": "연희3거리",
      "lat": 37.567933,
      "lng": 126.93161
    },
    {
      "routeId": "100100552",
      "routeNo": "7739",
      "seq": 18,
      "stationId": "112000066",
      "arsId": "13149",
      "name": "연희교차로",
      "lat": 37.565947,
      "lng": 126.930035
    },
    {
      "routeId": "100100552",
      "routeNo": "7739",
      "seq": 19,
      "stationId": "113000135",
      "arsId": "14226",
      "name": "연남동",
      "lat": 37.5625221708,
      "lng": 126.9275410215
    },
    {
      "routeId": "100100552",
      "routeNo": "7739",
      "seq": 20,
      "stationId": "113000506",
      "arsId": "14097",
      "name": "홍대입구역(가상)",
      "lat": 37.5586515499,
      "lng": 126.9259252365
    },
    {
      "routeId": "100100552",
      "routeNo": "7739",
      "seq": 21,
      "stationId": "113000414",
      "arsId": "14016",
      "name": "홍대입구역",
      "lat": 37.557325,
      "lng": 126.924317
    },
    {
      "routeId": "100100552",
      "routeNo": "7739",
      "seq": 22,
      "stationId": "113000211",
      "arsId": "14314",
      "name": "서교동주민센터.마포신문사",
      "lat": 37.5548915242,
      "lng": 126.9163533449
    },
    {
      "routeId": "100100552",
      "routeNo": "7739",
      "seq": 23,
      "stationId": "113000212",
      "arsId": "14315",
      "name": "동교로사거리",
      "lat": 37.5556445461,
      "lng": 126.91982843
    },
    {
      "routeId": "100100552",
      "routeNo": "7739",
      "seq": 24,
      "stationId": "113000505",
      "arsId": "14096",
      "name": "홍대입구역(가상)",
      "lat": 37.5552260552,
      "lng": 126.9218643721
    },
    {
      "routeId": "100100552",
      "routeNo": "7739",
      "seq": 25,
      "stationId": "113000422",
      "arsId": "14015",
      "name": "홍대입구역",
      "lat": 37.556641,
      "lng": 126.923466
    },
    {
      "routeId": "100100552",
      "routeNo": "7739",
      "seq": 26,
      "stationId": "112000064",
      "arsId": "13147",
      "name": "연희동대우아파트",
      "lat": 37.5626233467,
      "lng": 126.9279552211
    },
    {
      "routeId": "100100552",
      "routeNo": "7739",
      "seq": 27,
      "stationId": "112000065",
      "arsId": "13148",
      "name": "연희교차로",
      "lat": 37.5657,
      "lng": 126.930163
    },
    {
      "routeId": "100100552",
      "routeNo": "7739",
      "seq": 28,
      "stationId": "112000140",
      "arsId": "13223",
      "name": "연희동자치회관",
      "lat": 37.5697475722,
      "lng": 126.9312958858
    },
    {
      "routeId": "100100552",
      "routeNo": "7739",
      "seq": 29,
      "stationId": "112000142",
      "arsId": "13225",
      "name": "서대문구보훈회관",
      "lat": 37.5718307606,
      "lng": 126.9295369529
    },
    {
      "routeId": "100100552",
      "routeNo": "7739",
      "seq": 30,
      "stationId": "112000144",
      "arsId": "13227",
      "name": "홍남교.서대문구행복그린센터",
      "lat": 37.5748855063,
      "lng": 126.9270266699
    },
    {
      "routeId": "100100552",
      "routeNo": "7739",
      "seq": 31,
      "stationId": "112000179",
      "arsId": "13262",
      "name": "홍남교.백련시장입구",
      "lat": 37.5752855695,
      "lng": 126.9251839684
    },
    {
      "routeId": "100100552",
      "routeNo": "7739",
      "seq": 32,
      "stationId": "112000421",
      "arsId": "13332",
      "name": "연흥교회",
      "lat": 37.572607,
      "lng": 126.921163
    },
    {
      "routeId": "100100552",
      "routeNo": "7739",
      "seq": 33,
      "stationId": "112000414",
      "arsId": "13328",
      "name": "가재울초등학교",
      "lat": 37.5744342988,
      "lng": 126.9187610612
    },
    {
      "routeId": "100100552",
      "routeNo": "7739",
      "seq": 34,
      "stationId": "112000105",
      "arsId": "13188",
      "name": "DMC센트레빌아파트",
      "lat": 37.575307,
      "lng": 126.915772
    },
    {
      "routeId": "100100552",
      "routeNo": "7739",
      "seq": 35,
      "stationId": "112000103",
      "arsId": "13186",
      "name": "북가좌삼호.DMC아이파크아파트",
      "lat": 37.57553,
      "lng": 126.913058
    },
    {
      "routeId": "100100552",
      "routeNo": "7739",
      "seq": 36,
      "stationId": "112000101",
      "arsId": "13184",
      "name": "모래내우체국.증가교회",
      "lat": 37.576322,
      "lng": 126.911825
    },
    {
      "routeId": "100100552",
      "routeNo": "7739",
      "seq": 37,
      "stationId": "112000159",
      "arsId": "13242",
      "name": "북가좌초교·DMC현대아파트",
      "lat": 37.5767876006,
      "lng": 126.9084364654
    },
    {
      "routeId": "100100552",
      "routeNo": "7739",
      "seq": 38,
      "stationId": "112000426",
      "arsId": "13330",
      "name": "DMC래미안e-편한세상3단지",
      "lat": 37.5751661304,
      "lng": 126.9067640004
    },
    {
      "routeId": "100100552",
      "routeNo": "7739",
      "seq": 39,
      "stationId": "112000002",
      "arsId": "13002",
      "name": "북가좌동삼거리",
      "lat": 37.575143,
      "lng": 126.905143
    },
    {
      "routeId": "100100552",
      "routeNo": "7739",
      "seq": 40,
      "stationId": "111000008",
      "arsId": "12008",
      "name": "디지털미디어시티역",
      "lat": 37.578622,
      "lng": 126.901345
    },
    {
      "routeId": "100100552",
      "routeNo": "7739",
      "seq": 41,
      "stationId": "111000006",
      "arsId": "12006",
      "name": "수색역앞",
      "lat": 37.583047,
      "lng": 126.894103
    },
    {
      "routeId": "100100552",
      "routeNo": "7739",
      "seq": 42,
      "stationId": "111000004",
      "arsId": "12004",
      "name": "수색교",
      "lat": 37.584698,
      "lng": 126.89018
    },
    {
      "routeId": "100100552",
      "routeNo": "7739",
      "seq": 43,
      "stationId": "111000002",
      "arsId": "12002",
      "name": "덕은교.은평차고지앞",
      "lat": 37.5891649798,
      "lng": 126.8847866387
    }
  ]
}