{
  "routeId": "100100022",
  "collectedAt": "2026-04-14T02:49:34.586Z",
  "stops": [
    {
      "routeId": "100100022",
      "routeNo": "143",
      "seq": 1,
      "stationId": "107000071",
      "arsId": "08161",
      "name": "정릉산장아파트",
      "lat": 37.616712,
      "lng": 127.003343
    },
    {
      "routeId": "100100022",
      "routeNo": "143",
      "seq": 2,
      "stationId": "107000073",
      "arsId": "08163",
      "name": "정릉4동주민센터.경국사",
      "lat": 37.613529,
      "lng": 127.006345
    },
    {
      "routeId": "100100022",
      "routeNo": "143",
      "seq": 3,
      "stationId": "107000518",
      "arsId": "08408",
      "name": "북한산보국문역2번출구",
      "lat": 37.612293899,
      "lng": 127.0079858233
    },
    {
      "routeId": "100100022",
      "routeNo": "143",
      "seq": 4,
      "stationId": "107000075",
      "arsId": "08165",
      "name": "성북청수도서관.정릉4동성당",
      "lat": 37.6115696748,
      "lng": 127.0084193769
    },
    {
      "routeId": "100100022",
      "routeNo": "143",
      "seq": 5,
      "stationId": "107000077",
      "arsId": "08167",
      "name": "정릉시장입구",
      "lat": 37.6084653256,
      "lng": 127.0098212542
    },
    {
      "routeId": "100100022",
      "routeNo": "143",
      "seq": 6,
      "stationId": "107000079",
      "arsId": "08169",
      "name": "정릉우체국앞",
      "lat": 37.6051645031,
      "lng": 127.0114121305
    },
    {
      "routeId": "100100022",
      "routeNo": "143",
      "seq": 7,
      "stationId": "107000029",
      "arsId": "08119",
      "name": "숭덕초교",
      "lat": 37.6033583637,
      "lng": 127.0146827395
    },
    {
      "routeId": "100100022",
      "routeNo": "143",
      "seq": 8,
      "stationId": "107000031",
      "arsId": "08121",
      "name": "정릉길음시장",
      "lat": 37.602215,
      "lng": 127.019326
    },
    {
      "routeId": "100100022",
      "routeNo": "143",
      "seq": 9,
      "stationId": "107000005",
      "arsId": "08005",
      "name": "미아리고개.미아리예술극장",
      "lat": 37.5988112954,
      "lng": 127.0217090638
    },
    {
      "routeId": "100100022",
      "routeNo": "143",
      "seq": 10,
      "stationId": "107000007",
      "arsId": "08007",
      "name": "돈암사거리.성신여대입구",
      "lat": 37.5937432794,
      "lng": 127.0181313708
    },
    {
      "routeId": "100100022",
      "routeNo": "143",
      "seq": 11,
      "stationId": "107000009",
      "arsId": "08009",
      "name": "삼선교.한성대학교",
      "lat": 37.5899648397,
      "lng": 127.0093351178
    },
    {
      "routeId": "100100022",
      "routeNo": "143",
      "seq": 12,
      "stationId": "100000005",
      "arsId": "01005",
      "name": "혜화동로터리.여운형활동터",
      "lat": 37.586243,
      "lng": 127.001744
    },
    {
      "routeId": "100100022",
      "routeNo": "143",
      "seq": 13,
      "stationId": "100000003",
      "arsId": "01003",
      "name": "명륜3가.성대입구",
      "lat": 37.582581,
      "lng": 126.998251
    },
    {
      "routeId": "100100022",
      "routeNo": "143",
      "seq": 14,
      "stationId": "100000002",
      "arsId": "01002",
      "name": "창경궁.서울대학교병원",
      "lat": 37.579433,
      "lng": 126.996522
    },
    {
      "routeId": "100100022",
      "routeNo": "143",
      "seq": 15,
      "stationId": "100000102",
      "arsId": "01198",
      "name": "원남동",
      "lat": 37.5745325055,
      "lng": 126.9973383362
    },
    {
      "routeId": "100100022",
      "routeNo": "143",
      "seq": 16,
      "stationId": "100000393",
      "arsId": "01018",
      "name": "종로4가.종묘",
      "lat": 37.570637,
      "lng": 126.995396
    },
    {
      "routeId": "100100022",
      "routeNo": "143",
      "seq": 17,
      "stationId": "100000391",
      "arsId": "01016",
      "name": "종로3가.탑골공원",
      "lat": 37.5703605443,
      "lng": 126.9899877751
    },
    {
      "routeId": "100100022",
      "routeNo": "143",
      "seq": 18,
      "stationId": "100000389",
      "arsId": "01014",
      "name": "종로2가",
      "lat": 37.570238,
      "lng": 126.986536
    },
    {
      "routeId": "100100022",
      "routeNo": "143",
      "seq": 19,
      "stationId": "101000041",
      "arsId": "02140",
      "name": "롯데백화점",
      "lat": 37.56451,
      "lng": 126.982205
    },
    {
      "routeId": "100100022",
      "routeNo": "143",
      "seq": 20,
      "stationId": "101000045",
      "arsId": "02144",
      "name": "신세계백화점",
      "lat": 37.561128,
      "lng": 126.981432
    },
    {
      "routeId": "100100022",
      "routeNo": "143",
      "seq": 21,
      "stationId": "101000048",
      "arsId": "02147",
      "name": "남산3호터널",
      "lat": 37.558312,
      "lng": 126.98274
    },
    {
      "routeId": "100100022",
      "routeNo": "143",
      "seq": 22,
      "stationId": "102000056",
      "arsId": "03150",
      "name": "용산한신아파트",
      "lat": 37.5398054732,
      "lng": 126.9871086322
    },
    {
      "routeId": "100100022",
      "routeNo": "143",
      "seq": 23,
      "stationId": "102000057",
      "arsId": "03151",
      "name": "해방촌",
      "lat": 37.537816,
      "lng": 126.986605
    },
    {
      "routeId": "100100022",
      "routeNo": "143",
      "seq": 24,
      "stationId": "102000060",
      "arsId": "03154",
      "name": "용산구청",
      "lat": 37.529405,
      "lng": 126.99116
    },
    {
      "routeId": "100100022",
      "routeNo": "143",
      "seq": 25,
      "stationId": "102000062",
      "arsId": "03156",
      "name": "한강중학교",
      "lat": 37.5245025908,
      "lng": 126.9924287738
    },
    {
      "routeId": "100100022",
      "routeNo": "143",
      "seq": 26,
      "stationId": "121000302",
      "arsId": "22381",
      "name": "반포대교남단.한강시민공원입구",
      "lat": 37.5078106042,
      "lng": 126.9994684234
    },
    {
      "routeId": "100100022",
      "routeNo": "143",
      "seq": 27,
      "stationId": "121000020",
      "arsId": "22020",
      "name": "고속터미널",
      "lat": 37.505843,
      "lng": 127.003922
    },
    {
      "routeId": "100100022",
      "routeNo": "143",
      "seq": 28,
      "stationId": "121000132",
      "arsId": "22208",
      "name": "신반포자이아파트",
      "lat": 37.5094758176,
      "lng": 127.0080006792
    },
    {
      "routeId": "100100022",
      "routeNo": "143",
      "seq": 29,
      "stationId": "121000130",
      "arsId": "22206",
      "name": "잠원성당",
      "lat": 37.5134704636,
      "lng": 127.0069649098
    },
    {
      "routeId": "100100022",
      "routeNo": "143",
      "seq": 30,
      "stationId": "121000098",
      "arsId": "22174",
      "name": "잠원한신아파트",
      "lat": 37.5165006388,
      "lng": 127.0100874797
    },
    {
      "routeId": "100100022",
      "routeNo": "143",
      "seq": 31,
      "stationId": "121000106",
      "arsId": "22182",
      "name": "신동중학교",
      "lat": 37.515502,
      "lng": 127.013018
    },
    {
      "routeId": "100100022",
      "routeNo": "143",
      "seq": 32,
      "stationId": "121000103",
      "arsId": "22179",
      "name": "신반포르엘아파트",
      "lat": 37.516687,
      "lng": 127.01438
    },
    {
      "routeId": "100100022",
      "routeNo": "143",
      "seq": 33,
      "stationId": "121000101",
      "arsId": "22177",
      "name": "롯데캐슬아파트",
      "lat": 37.519672,
      "lng": 127.015485
    },
    {
      "routeId": "100100022",
      "routeNo": "143",
      "seq": 34,
      "stationId": "122000001",
      "arsId": "23101",
      "name": "신사중학교",
      "lat": 37.5229277357,
      "lng": 127.0204991277
    },
    {
      "routeId": "100100022",
      "routeNo": "143",
      "seq": 35,
      "stationId": "122000003",
      "arsId": "23103",
      "name": "광림교회.현대고등학교",
      "lat": 37.5253868122,
      "lng": 127.0252663803
    },
    {
      "routeId": "100100022",
      "routeNo": "143",
      "seq": 36,
      "stationId": "122000049",
      "arsId": "23149",
      "name": "현대아파트",
      "lat": 37.5282986659,
      "lng": 127.0311225746
    },
    {
      "routeId": "100100022",
      "routeNo": "143",
      "seq": 37,
      "stationId": "122000055",
      "arsId": "23157",
      "name": "압구정파출소",
      "lat": 37.528789,
      "lng": 127.036267
    },
    {
      "routeId": "100100022",
      "routeNo": "143",
      "seq": 38,
      "stationId": "122000057",
      "arsId": "23159",
      "name": "한양아파트.압구정로데오역",
      "lat": 37.527929495,
      "lng": 127.0392574486
    },
    {
      "routeId": "100100022",
      "routeNo": "143",
      "seq": 39,
      "stationId": "122000079",
      "arsId": "23182",
      "name": "청담초등학교앞",
      "lat": 37.5264613268,
      "lng": 127.045085725
    },
    {
      "routeId": "100100022",
      "routeNo": "143",
      "seq": 40,
      "stationId": "122000065",
      "arsId": "23167",
      "name": "청담동주민센터",
      "lat": 37.524522,
      "lng": 127.051348
    },
    {
      "routeId": "100100022",
      "routeNo": "143",
      "seq": 41,
      "stationId": "122000067",
      "arsId": "23169",
      "name": "영동교입구",
      "lat": 37.522801,
      "lng": 127.05519
    },
    {
      "routeId": "100100022",
      "routeNo": "143",
      "seq": 42,
      "stationId": "122000068",
      "arsId": "23170",
      "name": "청담역.경기고교",
      "lat": 37.520982,
      "lng": 127.056165
    },
    {
      "routeId": "100100022",
      "routeNo": "143",
      "seq": 43,
      "stationId": "122000086",
      "arsId": "23189",
      "name": "봉은사.삼성1파출소앞",
      "lat": 37.5149677625,
      "lng": 127.0594353837
    },
    {
      "routeId": "100100022",
      "routeNo": "143",
      "seq": 44,
      "stationId": "122000096",
      "arsId": "23199",
      "name": "무역센터",
      "lat": 37.5105673268,
      "lng": 127.0618556161
    },
    {
      "routeId": "100100022",
      "routeNo": "143",
      "seq": 45,
      "stationId": "122000330",
      "arsId": "23438",
      "name": "삼성역3번출구",
      "lat": 37.507158,
      "lng": 127.063711
    },
    {
      "routeId": "100100022",
      "routeNo": "143",
      "seq": 46,
      "stationId": "122000146",
      "arsId": "23249",
      "name": "휘문중고등학교",
      "lat": 37.5040741974,
      "lng": 127.0614966158
    },
    {
      "routeId": "100100022",
      "routeNo": "143",
      "seq": 47,
      "stationId": "122000159",
      "arsId": "23262",
      "name": "대치동현대아파트",
      "lat": 37.501646012,
      "lng": 127.0591748622
    },
    {
      "routeId": "100100022",
      "routeNo": "143",
      "seq": 48,
      "stationId": "122000121",
      "arsId": "23224",
      "name": "농협대치지점",
      "lat": 37.4979369667,
      "lng": 127.0611545494
    },
    {
      "routeId": "100100022",
      "routeNo": "143",
      "seq": 49,
      "stationId": "122000122",
      "arsId": "23225",
      "name": "대치SKVIEW아파트.서울교회",
      "lat": 37.4962613463,
      "lng": 127.0620556876
    },
    {
      "routeId": "100100022",
      "routeNo": "143",
      "seq": 50,
      "stationId": "122000128",
      "arsId": "23231",
      "name": "대치역7번출구.선경아파트",
      "lat": 37.492458,
      "lng": 127.06408
    },
    {
      "routeId": "100100022",
      "routeNo": "143",
      "seq": 51,
      "stationId": "122000248",
      "arsId": "23352",
      "name": "개포동역7번출구.개포시장",
      "lat": 37.488648,
      "lng": 127.066165
    },
    {
      "routeId": "100100022",
      "routeNo": "143",
      "seq": 52,
      "stationId": "122000247",
      "arsId": "23351",
      "name": "경기여고",
      "lat": 37.48653,
      "lng": 127.067244
    },
    {
      "routeId": "100100022",
      "routeNo": "143",
      "seq": 53,
      "stationId": "122000245",
      "arsId": "23349",
      "name": "디에이치아너힐즈",
      "lat": 37.48373,
      "lng": 127.068697
    },
    {
      "routeId": "100100022",
      "routeNo": "143",
      "seq": 54,
      "stationId": "122000241",
      "arsId": "23345",
      "name": "래미안블레스티지아파트",
      "lat": 37.480651,
      "lng": 127.063217
    },
    {
      "routeId": "100100022",
      "routeNo": "143",
      "seq": 55,
      "stationId": "122000242",
      "arsId": "23346",
      "name": "개포도서관",
      "lat": 37.483697,
      "lng": 127.063897
    },
    {
      "routeId": "100100022",
      "routeNo": "143",
      "seq": 56,
      "stationId": "122000243",
      "arsId": "23347",
      "name": "수도전기공고후문",
      "lat": 37.484782057,
      "lng": 127.0656239958
    },
    {
      "routeId": "100100022",
      "routeNo": "143",
      "seq": 57,
      "stationId": "122000249",
      "arsId": "23353",
      "name": "개포주공5단지경기여고",
      "lat": 37.4867075784,
      "lng": 127.0674711689
    },
    {
      "routeId": "100100022",
      "routeNo": "143",
      "seq": 58,
      "stationId": "122000250",
      "arsId": "23354",
      "name": "개포동역6번출구.개포시장",
      "lat": 37.488545,
      "lng": 127.06658
    },
    {
      "routeId": "100100022",
      "routeNo": "143",
      "seq": 59,
      "stationId": "122000136",
      "arsId": "23239",
      "name": "대치역6번출구.강남구민회관",
      "lat": 37.492785,
      "lng": 127.064278
    },
    {
      "routeId": "100100022",
      "routeNo": "143",
      "seq": 60,
      "stationId": "122000130",
      "arsId": "23233",
      "name": "은마아파트",
      "lat": 37.4955959062,
      "lng": 127.0628615031
    },
    {
      "routeId": "100100022",
      "routeNo": "143",
      "seq": 61,
      "stationId": "122000131",
      "arsId": "23234",
      "name": "은마치안센터",
      "lat": 37.4980989737,
      "lng": 127.0615233829
    },
    {
      "routeId": "100100022",
      "routeNo": "143",
      "seq": 62,
      "stationId": "122000144",
      "arsId": "23247",
      "name": "대치현대아파트",
      "lat": 37.500825,
      "lng": 127.060062
    },
    {
      "routeId": "100100022",
      "routeNo": "143",
      "seq": 63,
      "stationId": "122000145",
      "arsId": "23248",
      "name": "휘문중고등학교",
      "lat": 37.5039658555,
      "lng": 127.0618980584
    },
    {
      "routeId": "100100022",
      "routeNo": "143",
      "seq": 64,
      "stationId": "122000139",
      "arsId": "23242",
      "name": "삼성역2번출구",
      "lat": 37.507253,
      "lng": 127.06441
    },
    {
      "routeId": "100100022",
      "routeNo": "143",
      "seq": 65,
      "stationId": "122000094",
      "arsId": "23197",
      "name": "삼성역7번출구",
      "lat": 37.5103989366,
      "lng": 127.0626911632
    },
    {
      "routeId": "100100022",
      "routeNo": "143",
      "seq": 66,
      "stationId": "122000089",
      "arsId": "23192",
      "name": "봉은사역3번출구.삼성1파출소",
      "lat": 37.5151079658,
      "lng": 127.0601628839
    },
    {
      "routeId": "100100022",
      "routeNo": "143",
      "seq": 67,
      "stationId": "122000085",
      "arsId": "23188",
      "name": "청담역.경기고교",
      "lat": 37.519306,
      "lng": 127.057852
    },
    {
      "routeId": "100100022",
      "routeNo": "143",
      "seq": 68,
      "stationId": "122000069",
      "arsId": "23171",
      "name": "우리은행청담지점.청담삼익아파트",
      "lat": 37.521076,
      "lng": 127.056898
    },
    {
      "routeId": "100100022",
      "routeNo": "143",
      "seq": 69,
      "stationId": "122000064",
      "arsId": "23166",
      "name": "청담동주민센터",
      "lat": 37.524615,
      "lng": 127.049332
    },
    {
      "routeId": "100100022",
      "routeNo": "143",
      "seq": 70,
      "stationId": "122000063",
      "arsId": "23165",
      "name": "청담초등학교",
      "lat": 37.5268028293,
      "lng": 127.045122136
    },
    {
      "routeId": "100100022",
      "routeNo": "143",
      "seq": 71,
      "stationId": "122000056",
      "arsId": "23158",
      "name": "한양아파트.압구정로데오역",
      "lat": 37.5282700029,
      "lng": 127.0395789565
    },
    {
      "routeId": "100100022",
      "routeNo": "143",
      "seq": 72,
      "stationId": "122000054",
      "arsId": "23156",
      "name": "압구정파출소",
      "lat": 37.529112,
      "lng": 127.036279
    },
    {
      "routeId": "100100022",
      "routeNo": "143",
      "seq": 73,
      "stationId": "122000048",
      "arsId": "23148",
      "name": "현대아파트",
      "lat": 37.5284384777,
      "lng": 127.030580671
    },
    {
      "routeId": "100100022",
      "routeNo": "143",
      "seq": 74,
      "stationId": "122000004",
      "arsId": "23104",
      "name": "광림교회.현대고등학교",
      "lat": 37.5252779533,
      "lng": 127.0244392928
    },
    {
      "routeId": "100100022",
      "routeNo": "143",
      "seq": 75,
      "stationId": "122000002",
      "arsId": "23102",
      "name": "신사중학교",
      "lat": 37.523733,
      "lng": 127.021302
    },
    {
      "routeId": "100100022",
      "routeNo": "143",
      "seq": 76,
      "stationId": "121000102",
      "arsId": "22178",
      "name": "롯데캐슬아파트",
      "lat": 37.519963891,
      "lng": 127.0154198388
    },
    {
      "routeId": "100100022",
      "routeNo": "143",
      "seq": 77,
      "stationId": "121000104",
      "arsId": "22180",
      "name": "신반포르엘아파트",
      "lat": 37.517676,
      "lng": 127.01457
    },
    {
      "routeId": "100100022",
      "routeNo": "143",
      "seq": 78,
      "stationId": "121000105",
      "arsId": "22181",
      "name": "신동중학교",
      "lat": 37.5155920192,
      "lng": 127.0132333639
    },
    {
      "routeId": "100100022",
      "routeNo": "143",
      "seq": 79,
      "stationId": "121000128",
      "arsId": "22204",
      "name": "잠원한신아파트",
      "lat": 37.516795,
      "lng": 127.00984
    },
    {
      "routeId": "100100022",
      "routeNo": "143",
      "seq": 80,
      "stationId": "121000129",
      "arsId": "22205",
      "name": "잠원성당.아크로리버뷰아파트",
      "lat": 37.513683,
      "lng": 127.006645
    },
    {
      "routeId": "100100022",
      "routeNo": "143",
      "seq": 81,
      "stationId": "121000131",
      "arsId": "22207",
      "name": "뉴코아아울렛",
      "lat": 37.5092091078,
      "lng": 127.0077585838
    },
    {
      "routeId": "100100022",
      "routeNo": "143",
      "seq": 82,
      "stationId": "121000019",
      "arsId": "22019",
      "name": "고속터미널",
      "lat": 37.506295,
      "lng": 127.005137
    },
    {
      "routeId": "100100022",
      "routeNo": "143",
      "seq": 83,
      "stationId": "121000303",
      "arsId": "22382",
      "name": "반포대교남단.한강시민공원입구",
      "lat": 37.5069439929,
      "lng": 127.0003902363
    },
    {
      "routeId": "100100022",
      "routeNo": "143",
      "seq": 84,
      "stationId": "102000061",
      "arsId": "03155",
      "name": "한강중학교",
      "lat": 37.52545,
      "lng": 126.992155
    },
    {
      "routeId": "100100022",
      "routeNo": "143",
      "seq": 85,
      "stationId": "102000059",
      "arsId": "03153",
      "name": "용산구청",
      "lat": 37.530303,
      "lng": 126.991163
    },
    {
      "routeId": "100100022",
      "routeNo": "143",
      "seq": 86,
      "stationId": "102000058",
      "arsId": "03152",
      "name": "국군재정관리단",
      "lat": 37.537318,
      "lng": 126.986848
    },
    {
      "routeId": "100100022",
      "routeNo": "143",
      "seq": 87,
      "stationId": "102000055",
      "arsId": "03149",
      "name": "이태원동남산대림아파트.용산동아파트",
      "lat": 37.539873,
      "lng": 126.987478
    },
    {
      "routeId": "100100022",
      "routeNo": "143",
      "seq": 88,
      "stationId": "102000054",
      "arsId": "03148",
      "name": "용암초등학교입구.이태원주공아파트",
      "lat": 37.544109,
      "lng": 126.988666
    },
    {
      "routeId": "100100022",
      "routeNo": "143",
      "seq": 89,
      "stationId": "101000049",
      "arsId": "02148",
      "name": "남산3호터널.정화예술대학교",
      "lat": 37.5595260891,
      "lng": 126.9826359346
    },
    {
      "routeId": "100100022",
      "routeNo": "143",
      "seq": 90,
      "stationId": "101000043",
      "arsId": "02142",
      "name": "명동.롯데영플라자",
      "lat": 37.562885,
      "lng": 126.982008
    },
    {
      "routeId": "100100022",
      "routeNo": "143",
      "seq": 91,
      "stationId": "101000040",
      "arsId": "02139",
      "name": "우리은행종로지점",
      "lat": 37.5678390393,
      "lng": 126.9828658628
    },
    {
      "routeId": "100100022",
      "routeNo": "143",
      "seq": 92,
      "stationId": "100000388",
      "arsId": "01013",
      "name": "종로2가",
      "lat": 37.57017,
      "lng": 126.984991
    },
    {
      "routeId": "100100022",
      "routeNo": "143",
      "seq": 93,
      "stationId": "100000390",
      "arsId": "01015",
      "name": "종로3가.탑골공원",
      "lat": 37.5702567706,
      "lng": 126.9892689914
    },
    {
      "routeId": "100100022",
      "routeNo": "143",
      "seq": 94,
      "stationId": "100000392",
      "arsId": "01017",
      "name": "종로4가.종묘",
      "lat": 37.5705069968,
      "lng": 126.9947218896
    },
    {
      "routeId": "100100022",
      "routeNo": "143",
      "seq": 95,
      "stationId": "100000394",
      "arsId": "01019",
      "name": "종로5가.광장시장",
      "lat": 37.570787,
      "lng": 126.999061
    },
    {
      "routeId": "100100022",
      "routeNo": "143",
      "seq": 96,
      "stationId": "100000108",
      "arsId": "01204",
      "name": "효제동.김상옥의거터",
      "lat": 37.5745,
      "lng": 127.00223
    },
    {
      "routeId": "100100022",
      "routeNo": "143",
      "seq": 97,
      "stationId": "100000123",
      "arsId": "01219",
      "name": "방송통신대.이화장",
      "lat": 37.578043,
      "lng": 127.002437
    },
    {
      "routeId": "100100022",
      "routeNo": "143",
      "seq": 98,
      "stationId": "100000124",
      "arsId": "01220",
      "name": "혜화역2번출구.마로니에공원",
      "lat": 37.5811194873,
      "lng": 127.0022769364
    },
    {
      "routeId": "100100022",
      "routeNo": "143",
      "seq": 99,
      "stationId": "100000133",
      "arsId": "01229",
      "name": "혜화역.동성중고(장면총리가옥)",
      "lat": 37.5845329425,
      "lng": 127.0015561579
    },
    {
      "routeId": "100100022",
      "routeNo": "143",
      "seq": 100,
      "stationId": "107000010",
      "arsId": "08010",
      "name": "삼선교.한성대학교.조소앙활동터",
      "lat": 37.5893632989,
      "lng": 127.0082049442
    },
    {
      "routeId": "100100022",
      "routeNo": "143",
      "seq": 101,
      "stationId": "107000008",
      "arsId": "08008",
      "name": "돈암사거리.성신여대입구",
      "lat": 37.593251,
      "lng": 127.017684
    },
    {
      "routeId": "100100022",
      "routeNo": "143",
      "seq": 102,
      "stationId": "107000006",
      "arsId": "08006",
      "name": "미아리고개.미아리예술극장",
      "lat": 37.5979210002,
      "lng": 127.0218209221
    },
    {
      "routeId": "100100022",
      "routeNo": "143",
      "seq": 103,
      "stationId": "107000004",
      "arsId": "08004",
      "name": "길음뉴타운",
      "lat": 37.603112,
      "lng": 127.023443
    },
    {
      "routeId": "100100022",
      "routeNo": "143",
      "seq": 104,
      "stationId": "107000034",
      "arsId": "08124",
      "name": "길음역3번출구B",
      "lat": 37.6020413112,
      "lng": 127.0237698953
    },
    {
      "routeId": "100100022",
      "routeNo": "143",
      "seq": 105,
      "stationId": "107000497",
      "arsId": "08400",
      "name": "길음뉴타운10단지.라온유아파트",
      "lat": 37.6029875372,
      "lng": 127.0181336142
    },
    {
      "routeId": "100100022",
      "routeNo": "143",
      "seq": 106,
      "stationId": "107000030",
      "arsId": "08120",
      "name": "숭덕초교",
      "lat": 37.603698019,
      "lng": 127.0151143204
    },
    {
      "routeId": "100100022",
      "routeNo": "143",
      "seq": 107,
      "stationId": "107000080",
      "arsId": "08170",
      "name": "정릉우체국앞",
      "lat": 37.605393,
      "lng": 127.011524
    },
    {
      "routeId": "100100022",
      "routeNo": "143",
      "seq": 108,
      "stationId": "107000078",
      "arsId": "08168",
      "name": "정릉시장입구",
      "lat": 37.6080327763,
      "lng": 127.0101519307
    },
    {
      "routeId": "100100022",
      "routeNo": "143",
      "seq": 109,
      "stationId": "107000076",
      "arsId": "08166",
      "name": "성북청수도서관.정릉4동성당",
      "lat": 37.610876,
      "lng": 127.009045
    },
    {
      "routeId": "100100022",
      "routeNo": "143",
      "seq": 110,
      "stationId": "107000519",
      "arsId": "08409",
      "name": "북한산보국문역1번출구",
      "lat": 37.6120835499,
      "lng": 127.008329146
    },
    {
      "routeId": "100100022",
      "routeNo": "143",
      "seq": 111,
      "stationId": "107000074",
      "arsId": "08164",
      "name": "정릉4동주민센터.경국사",
      "lat": 37.613335,
      "lng": 127.006681
    },
    {
      "routeId": "100100022",
      "routeNo": "143",
      "seq": 112,
      "stationId": "107000072",
      "arsId": "08162",
      "name": "정릉대우아파트",
      "lat": 37.616708,
      "lng": 127.00386
    },
    {
      "routeId": "100100022",
      "routeNo": "143",
      "seq": 113,
      "stationId": "107000246",
      "arsId": "08344",
      "name": "대진여객차고지",
      "lat": 37.617689,
      "lng": 127.000797
    }
  ]
}