{
  "routeId": "100100016",
  "collectedAt": "2026-05-15T05:26:45.519Z",
  "source": "seoul_api",
  "stops": [
    {
      "routeId": "100100016",
      "seq": 1,
      "stationId": "107000070",
      "arsId": "08160",
      "name": "정릉북한산국립공원입구",
      "lat": 37.617721,
      "lng": 126.999296,
      "direction": "정릉"
    },
    {
      "routeId": "100100016",
      "seq": 2,
      "stationId": "107000071",
      "arsId": "08161",
      "name": "정릉산장아파트",
      "lat": 37.616712,
      "lng": 127.003343,
      "direction": "정릉"
    },
    {
      "routeId": "100100016",
      "seq": 3,
      "stationId": "107000073",
      "arsId": "08163",
      "name": "정릉4동주민센터.경국사",
      "lat": 37.613529,
      "lng": 127.006345,
      "direction": "정릉"
    },
    {
      "routeId": "100100016",
      "seq": 4,
      "stationId": "107000518",
      "arsId": "08408",
      "name": "북한산보국문역2번출구",
      "lat": 37.612293899,
      "lng": 127.0079858233,
      "direction": "정릉"
    },
    {
      "routeId": "100100016",
      "seq": 5,
      "stationId": "107000075",
      "arsId": "08165",
      "name": "성북청수도서관.정릉4동성당",
      "lat": 37.6115696748,
      "lng": 127.0084193769,
      "direction": "정릉"
    },
    {
      "routeId": "100100016",
      "seq": 6,
      "stationId": "107000077",
      "arsId": "08167",
      "name": "정릉시장입구",
      "lat": 37.6084653256,
      "lng": 127.0098212542,
      "direction": "정릉"
    },
    {
      "routeId": "100100016",
      "seq": 7,
      "stationId": "107000079",
      "arsId": "08169",
      "name": "정릉우체국앞",
      "lat": 37.6051645031,
      "lng": 127.0114121305,
      "direction": "정릉"
    },
    {
      "routeId": "100100016",
      "seq": 8,
      "stationId": "107000029",
      "arsId": "08119",
      "name": "숭덕초교",
      "lat": 37.6033583637,
      "lng": 127.0146827395,
      "direction": "정릉"
    },
    {
      "routeId": "100100016",
      "seq": 9,
      "stationId": "107000031",
      "arsId": "08121",
      "name": "정릉길음시장",
      "lat": 37.602215,
      "lng": 127.019326,
      "direction": "정릉"
    },
    {
      "routeId": "100100016",
      "seq": 10,
      "stationId": "107000033",
      "arsId": "08123",
      "name": "길음역2번출구.돈암삼성아파트",
      "lat": 37.6018744304,
      "lng": 127.0245753189,
      "direction": "정릉"
    },
    {
      "routeId": "100100016",
      "seq": 11,
      "stationId": "107000035",
      "arsId": "08125",
      "name": "돈암1동주민센터",
      "lat": 37.603672,
      "lng": 127.026423,
      "direction": "정릉"
    },
    {
      "routeId": "100100016",
      "seq": 12,
      "stationId": "107000037",
      "arsId": "08127",
      "name": "종암사거리",
      "lat": 37.603607,
      "lng": 127.031172,
      "direction": "정릉"
    },
    {
      "routeId": "100100016",
      "seq": 13,
      "stationId": "107000060",
      "arsId": "08150",
      "name": "종암경찰서",
      "lat": 37.6014326326,
      "lng": 127.0330443723,
      "direction": "정릉"
    },
    {
      "routeId": "100100016",
      "seq": 14,
      "stationId": "107000062",
      "arsId": "08152",
      "name": "종암동주민센터",
      "lat": 37.5994152643,
      "lng": 127.0341075456,
      "direction": "정릉"
    },
    {
      "routeId": "100100016",
      "seq": 15,
      "stationId": "107000064",
      "arsId": "08154",
      "name": "숭례초교",
      "lat": 37.5948052663,
      "lng": 127.0356811781,
      "direction": "정릉"
    },
    {
      "routeId": "100100016",
      "seq": 16,
      "stationId": "105000088",
      "arsId": "06174",
      "name": "고려대역.고대앞삼거리",
      "lat": 37.588548,
      "lng": 127.036872,
      "direction": "정릉"
    },
    {
      "routeId": "100100016",
      "seq": 17,
      "stationId": "105000085",
      "arsId": "06171",
      "name": "홍파초등학교.정화여중고",
      "lat": 37.5855971074,
      "lng": 127.0383377075,
      "direction": "정릉"
    },
    {
      "routeId": "100100016",
      "seq": 18,
      "stationId": "105000082",
      "arsId": "06168",
      "name": "제기동주민센터.서울약령시앞",
      "lat": 37.5819251477,
      "lng": 127.0383947016,
      "direction": "정릉"
    },
    {
      "routeId": "100100016",
      "seq": 19,
      "stationId": "105000083",
      "arsId": "06169",
      "name": "경동시장",
      "lat": 37.5799644113,
      "lng": 127.038283869,
      "direction": "정릉"
    },
    {
      "routeId": "100100016",
      "seq": 20,
      "stationId": "105000555",
      "arsId": "06776",
      "name": "경동시장사거리",
      "lat": 37.5772293536,
      "lng": 127.038109149,
      "direction": "정릉"
    },
    {
      "routeId": "100100016",
      "seq": 21,
      "stationId": "105000080",
      "arsId": "06166",
      "name": "동대문구청.용신동주민센터",
      "lat": 37.575307,
      "lng": 127.037988,
      "direction": "정릉"
    },
    {
      "routeId": "100100016",
      "seq": 22,
      "stationId": "103000021",
      "arsId": "04120",
      "name": "마장축산물시장",
      "lat": 37.5702590064,
      "lng": 127.0375113528,
      "direction": "정릉"
    },
    {
      "routeId": "100100016",
      "seq": 23,
      "stationId": "103000023",
      "arsId": "04122",
      "name": "도선사거리",
      "lat": 37.566648,
      "lng": 127.036487,
      "direction": "정릉"
    },
    {
      "routeId": "100100016",
      "seq": 24,
      "stationId": "103000014",
      "arsId": "04112",
      "name": "성동구청",
      "lat": 37.563127,
      "lng": 127.035915,
      "direction": "정릉"
    },
    {
      "routeId": "100100016",
      "seq": 25,
      "stationId": "103000033",
      "arsId": "04132",
      "name": "무학여고",
      "lat": 37.5578953118,
      "lng": 127.0338672615,
      "direction": "정릉"
    },
    {
      "routeId": "100100016",
      "seq": 26,
      "stationId": "103000040",
      "arsId": "04139",
      "name": "응봉동주민센터",
      "lat": 37.5537612141,
      "lng": 127.0334386918,
      "direction": "정릉"
    },
    {
      "routeId": "100100016",
      "seq": 27,
      "stationId": "103000043",
      "arsId": "04142",
      "name": "응봉동현대아파트",
      "lat": 37.550222,
      "lng": 127.0309,
      "direction": "정릉"
    },
    {
      "routeId": "100100016",
      "seq": 28,
      "stationId": "103000061",
      "arsId": "04160",
      "name": "삼성래미안아파트앞",
      "lat": 37.5483498668,
      "lng": 127.0275127211,
      "direction": "정릉"
    },
    {
      "routeId": "100100016",
      "seq": 29,
      "stationId": "103000055",
      "arsId": "04154",
      "name": "금남시장앞.백범학원터",
      "lat": 37.5482887551,
      "lng": 127.022487755,
      "direction": "정릉"
    },
    {
      "routeId": "100100016",
      "seq": 30,
      "stationId": "103000059",
      "arsId": "04158",
      "name": "금옥초등학교앞",
      "lat": 37.546254,
      "lng": 127.018237,
      "direction": "정릉"
    },
    {
      "routeId": "100100016",
      "seq": 31,
      "stationId": "103000063",
      "arsId": "04162",
      "name": "옥수삼성아파트.래미안옥수리버젠",
      "lat": 37.5438034317,
      "lng": 127.0146552078,
      "direction": "정릉"
    },
    {
      "routeId": "100100016",
      "seq": 32,
      "stationId": "103000071",
      "arsId": "04170",
      "name": "옥정중학교입구",
      "lat": 37.5408770683,
      "lng": 127.0109994635,
      "direction": "정릉"
    },
    {
      "routeId": "100100016",
      "seq": 33,
      "stationId": "102000116",
      "arsId": "03210",
      "name": "한남시범아파트",
      "lat": 37.5379429734,
      "lng": 127.0122607528,
      "direction": "정릉"
    },
    {
      "routeId": "100100016",
      "seq": 34,
      "stationId": "102000118",
      "arsId": "03212",
      "name": "한남동",
      "lat": 37.5339127002,
      "lng": 127.0084445845,
      "direction": "정릉"
    },
    {
      "routeId": "100100016",
      "seq": 35,
      "stationId": "102000068",
      "arsId": "03162",
      "name": "순천향대학병원",
      "lat": 37.5364422432,
      "lng": 127.0057302453,
      "direction": "정릉"
    },
    {
      "routeId": "100100016",
      "seq": 36,
      "stationId": "102000102",
      "arsId": "03196",
      "name": "한강진역.블루스퀘어",
      "lat": 37.540805,
      "lng": 127.001695,
      "direction": "정릉"
    },
    {
      "routeId": "100100016",
      "seq": 37,
      "stationId": "102000100",
      "arsId": "03194",
      "name": "한남동주민센터",
      "lat": 37.537047,
      "lng": 127.000468,
      "direction": "정릉"
    },
    {
      "routeId": "100100016",
      "seq": 38,
      "stationId": "102000098",
      "arsId": "03192",
      "name": "이태원119안전센터",
      "lat": 37.53479,
      "lng": 126.996387,
      "direction": "정릉"
    },
    {
      "routeId": "100100016",
      "seq": 39,
      "stationId": "102000096",
      "arsId": "03190",
      "name": "이태원역1번출구.해밀턴호텔",
      "lat": 37.534552,
      "lng": 126.993043,
      "direction": "정릉"
    },
    {
      "routeId": "100100016",
      "seq": 40,
      "stationId": "102000094",
      "arsId": "03188",
      "name": "용산구청.이태원시장",
      "lat": 37.534375,
      "lng": 126.99046,
      "direction": "정릉"
    },
    {
      "routeId": "100100016",
      "seq": 41,
      "stationId": "102000092",
      "arsId": "03186",
      "name": "녹사평역",
      "lat": 37.5351069553,
      "lng": 126.9851183494,
      "direction": "정릉"
    },
    {
      "routeId": "100100016",
      "seq": 42,
      "stationId": "102000090",
      "arsId": "03184",
      "name": "전쟁기념관",
      "lat": 37.5347586674,
      "lng": 126.9768577525,
      "direction": "정릉"
    },
    {
      "routeId": "100100016",
      "seq": 43,
      "stationId": "102000087",
      "arsId": "03181",
      "name": "용산꿈나무종합타운.보건분소",
      "lat": 37.5384268178,
      "lng": 126.9649997667,
      "direction": "정릉"
    },
    {
      "routeId": "100100016",
      "seq": 44,
      "stationId": "102000085",
      "arsId": "03179",
      "name": "효창공원앞역.이봉창역사울림관",
      "lat": 37.539267,
      "lng": 126.9619,
      "direction": "정릉"
    },
    {
      "routeId": "100100016",
      "seq": 45,
      "stationId": "102000083",
      "arsId": "03177",
      "name": "용마루고개(서울자동차고등학교)",
      "lat": 37.5406368923,
      "lng": 126.9584647114,
      "direction": "정릉"
    },
    {
      "routeId": "100100016",
      "seq": 46,
      "stationId": "113000060",
      "arsId": "14151",
      "name": "용마루고개.신공덕삼성아파트",
      "lat": 37.541871,
      "lng": 126.955885,
      "direction": "정릉"
    },
    {
      "routeId": "100100016",
      "seq": 47,
      "stationId": "113000058",
      "arsId": "14149",
      "name": "공덕역6번출구",
      "lat": 37.5430732748,
      "lng": 126.9531626402,
      "direction": "정릉"
    },
    {
      "routeId": "100100016",
      "seq": 48,
      "stationId": "113000088",
      "arsId": "14179",
      "name": "공덕역2번출구",
      "lat": 37.545201,
      "lng": 126.948339,
      "direction": "정릉"
    },
    {
      "routeId": "100100016",
      "seq": 49,
      "stationId": "113000086",
      "arsId": "14177",
      "name": "동도중학교.서울디자인고등학교",
      "lat": 37.5464778856,
      "lng": 126.945401461,
      "direction": "정릉"
    },
    {
      "routeId": "100100016",
      "seq": 50,
      "stationId": "113000084",
      "arsId": "14175",
      "name": "대흥역",
      "lat": 37.547675,
      "lng": 126.94272,
      "direction": "정릉"
    },
    {
      "routeId": "100100016",
      "seq": 51,
      "stationId": "113000082",
      "arsId": "14173",
      "name": "광성중고등학교",
      "lat": 37.548952,
      "lng": 126.93986,
      "direction": "정릉"
    },
    {
      "routeId": "100100016",
      "seq": 52,
      "stationId": "113000079",
      "arsId": "14170",
      "name": "서강대학교",
      "lat": 37.5511,
      "lng": 126.93797,
      "direction": "정릉"
    },
    {
      "routeId": "100100016",
      "seq": 53,
      "stationId": "113000078",
      "arsId": "14169",
      "name": "신촌로터리",
      "lat": 37.5535240112,
      "lng": 126.9372675673,
      "direction": "정릉"
    },
    {
      "routeId": "100100016",
      "seq": 54,
      "stationId": "112000176",
      "arsId": "13259",
      "name": "창서초등학교.현대백화점",
      "lat": 37.5566664866,
      "lng": 126.9330023083,
      "direction": "정릉"
    },
    {
      "routeId": "100100016",
      "seq": 55,
      "stationId": "112000061",
      "arsId": "13144",
      "name": "동교동삼거리연희동방면",
      "lat": 37.5586582575,
      "lng": 126.9274994875,
      "direction": "정릉"
    },
    {
      "routeId": "100100016",
      "seq": 56,
      "stationId": "112000064",
      "arsId": "13147",
      "name": "연희동대우아파트",
      "lat": 37.5626233467,
      "lng": 126.9279552211,
      "direction": "정릉"
    },
    {
      "routeId": "100100016",
      "seq": 57,
      "stationId": "112000065",
      "arsId": "13148",
      "name": "연희교차로",
      "lat": 37.5657,
      "lng": 126.930163,
      "direction": "정릉"
    },
    {
      "routeId": "100100016",
      "seq": 58,
      "stationId": "112000067",
      "arsId": "13150",
      "name": "연희3거리",
      "lat": 37.5678664551,
      "lng": 126.9319224998,
      "direction": "정릉"
    },
    {
      "routeId": "100100016",
      "seq": 59,
      "stationId": "112000069",
      "arsId": "13152",
      "name": "한성화교중고교.서대문소방서",
      "lat": 37.572300887,
      "lng": 126.9354132782,
      "direction": "정릉"
    },
    {
      "routeId": "100100016",
      "seq": 60,
      "stationId": "112000071",
      "arsId": "13154",
      "name": "서대문자연사박물관입구",
      "lat": 37.575177,
      "lng": 126.935406,
      "direction": "정릉"
    },
    {
      "routeId": "100100016",
      "seq": 61,
      "stationId": "112000073",
      "arsId": "13156",
      "name": "서대문구청.보건소.구의회",
      "lat": 37.5782448388,
      "lng": 126.9360659508,
      "direction": "정릉"
    },
    {
      "routeId": "100100016",
      "seq": 62,
      "stationId": "112000076",
      "arsId": "13159",
      "name": "서대문보건소별관.홍제폭포",
      "lat": 37.5826619393,
      "lng": 126.9362856888,
      "direction": "정릉"
    },
    {
      "routeId": "100100016",
      "seq": 63,
      "stationId": "112000077",
      "arsId": "13160",
      "name": "정원여중",
      "lat": 37.5862495334,
      "lng": 126.9349879316,
      "direction": "정릉"
    },
    {
      "routeId": "100100016",
      "seq": 64,
      "stationId": "112000079",
      "arsId": "13162",
      "name": "홍은현대아파트.스위스그랜드호텔",
      "lat": 37.588639,
      "lng": 126.936427,
      "direction": "정릉"
    },
    {
      "routeId": "100100016",
      "seq": 65,
      "stationId": "112000081",
      "arsId": "13164",
      "name": "유진상가",
      "lat": 37.591753,
      "lng": 126.942865,
      "direction": "정릉"
    },
    {
      "routeId": "100100016",
      "seq": 66,
      "stationId": "112000083",
      "arsId": "13166",
      "name": "문화촌현대아파트",
      "lat": 37.59225,
      "lng": 126.946542,
      "direction": "정릉"
    },
    {
      "routeId": "100100016",
      "seq": 67,
      "stationId": "112000085",
      "arsId": "13168",
      "name": "서울여자간호대학교.홍은초등학교",
      "lat": 37.596107216,
      "lng": 126.9492224035,
      "direction": "정릉"
    },
    {
      "routeId": "100100016",
      "seq": 68,
      "stationId": "112000087",
      "arsId": "13170",
      "name": "유원하나아파트",
      "lat": 37.595884281,
      "lng": 126.9526777041,
      "direction": "정릉"
    },
    {
      "routeId": "100100016",
      "seq": 69,
      "stationId": "112000089",
      "arsId": "13172",
      "name": "홍지문.옥천암",
      "lat": 37.5965724145,
      "lng": 126.9565922341,
      "direction": "정릉"
    },
    {
      "routeId": "100100016",
      "seq": 70,
      "stationId": "100000048",
      "arsId": "01143",
      "name": "세검정.세검정성당",
      "lat": 37.6006470965,
      "lng": 126.959155798,
      "direction": "정릉"
    },
    {
      "routeId": "100100016",
      "seq": 71,
      "stationId": "100000049",
      "arsId": "01144",
      "name": "세검정초등학교",
      "lat": 37.6022680671,
      "lng": 126.9614328894,
      "direction": "정릉"
    },
    {
      "routeId": "100100016",
      "seq": 72,
      "stationId": "100000069",
      "arsId": "01164",
      "name": "화정박물관",
      "lat": 37.6045038178,
      "lng": 126.9648102665,
      "direction": "정릉"
    },
    {
      "routeId": "100100016",
      "seq": 73,
      "stationId": "100000068",
      "arsId": "01163",
      "name": "서울예술고등학교.평창동주민센터",
      "lat": 37.6057787606,
      "lng": 126.9676276108,
      "direction": "정릉"
    },
    {
      "routeId": "100100016",
      "seq": 74,
      "stationId": "100000067",
      "arsId": "01162",
      "name": "예능교회",
      "lat": 37.606517,
      "lng": 126.97,
      "direction": "정릉"
    },
    {
      "routeId": "100100016",
      "seq": 75,
      "stationId": "100000066",
      "arsId": "01161",
      "name": "벽산평창힐스아파트",
      "lat": 37.60819,
      "lng": 126.972797,
      "direction": "정릉"
    },
    {
      "routeId": "100100016",
      "seq": 76,
      "stationId": "100000065",
      "arsId": "01160",
      "name": "롯데아파트",
      "lat": 37.610248,
      "lng": 126.976652,
      "direction": "정릉"
    },
    {
      "routeId": "100100016",
      "seq": 77,
      "stationId": "100000355",
      "arsId": "01293",
      "name": "평창동삼성아파트",
      "lat": 37.611179,
      "lng": 126.978799,
      "direction": "정릉"
    },
    {
      "routeId": "100100016",
      "seq": 78,
      "stationId": "107000017",
      "arsId": "08107",
      "name": "국민대앞",
      "lat": 37.6106795513,
      "lng": 126.9940273315,
      "direction": "정릉"
    },
    {
      "routeId": "100100016",
      "seq": 79,
      "stationId": "107000021",
      "arsId": "08111",
      "name": "청덕초등학교",
      "lat": 37.608787,
      "lng": 126.999112,
      "direction": "정릉"
    },
    {
      "routeId": "100100016",
      "seq": 80,
      "stationId": "107000023",
      "arsId": "08113",
      "name": "북악중학교",
      "lat": 37.607386,
      "lng": 127.002908,
      "direction": "정릉"
    },
    {
      "routeId": "100100016",
      "seq": 81,
      "stationId": "107000025",
      "arsId": "08115",
      "name": "봉국사",
      "lat": 37.605854,
      "lng": 127.007624,
      "direction": "정릉"
    },
    {
      "routeId": "100100016",
      "seq": 82,
      "stationId": "107000080",
      "arsId": "08170",
      "name": "정릉우체국앞",
      "lat": 37.605393,
      "lng": 127.011524,
      "direction": "정릉"
    },
    {
      "routeId": "100100016",
      "seq": 83,
      "stationId": "107000078",
      "arsId": "08168",
      "name": "정릉시장입구",
      "lat": 37.6080327763,
      "lng": 127.0101519307,
      "direction": "정릉"
    },
    {
      "routeId": "100100016",
      "seq": 84,
      "stationId": "107000076",
      "arsId": "08166",
      "name": "성북청수도서관.정릉4동성당",
      "lat": 37.610876,
      "lng": 127.009045,
      "direction": "정릉"
    },
    {
      "routeId": "100100016",
      "seq": 85,
      "stationId": "107000519",
      "arsId": "08409",
      "name": "북한산보국문역1번출구",
      "lat": 37.6120835499,
      "lng": 127.008329146,
      "direction": "정릉"
    },
    {
      "routeId": "100100016",
      "seq": 86,
      "stationId": "107000074",
      "arsId": "08164",
      "name": "정릉4동주민센터.경국사",
      "lat": 37.613335,
      "lng": 127.006681,
      "direction": "정릉"
    },
    {
      "routeId": "100100016",
      "seq": 87,
      "stationId": "107000072",
      "arsId": "08162",
      "name": "정릉대우아파트",
      "lat": 37.616708,
      "lng": 127.00386,
      "direction": "정릉"
    },
    {
      "routeId": "100100016",
      "seq": 88,
      "stationId": "107000249",
      "arsId": "08347",
      "name": "정릉북한산국립공원입구",
      "lat": 37.617839,
      "lng": 126.999331,
      "direction": "정릉"
    }
  ]
}