{
  "routeId": "100100358",
  "collectedAt": "2026-04-06T16:05:48.995Z",
  "stops": [
    {
      "routeId": "100100358",
      "routeNo": "7727",
      "seq": 1,
      "stationId": "219000698",
      "arsId": "36299",
      "name": "설문동",
      "lat": 37.7163063837,
      "lng": 126.7906902109
    },
    {
      "routeId": "100100358",
      "routeNo": "7727",
      "seq": 2,
      "stationId": "219000257",
      "arsId": "36293",
      "name": "청석궁.성석동감내",
      "lat": 37.7142062846,
      "lng": 126.7883863077
    },
    {
      "routeId": "100100358",
      "routeNo": "7727",
      "seq": 3,
      "stationId": "219000338",
      "arsId": "36294",
      "name": "상감천마을",
      "lat": 37.7094777585,
      "lng": 126.7854719769
    },
    {
      "routeId": "100100358",
      "routeNo": "7727",
      "seq": 4,
      "stationId": "219000337",
      "arsId": "36639",
      "name": "부대앞",
      "lat": 37.7071589106,
      "lng": 126.7833131657
    },
    {
      "routeId": "100100358",
      "routeNo": "7727",
      "seq": 5,
      "stationId": "219000770",
      "arsId": "36620",
      "name": "고양송암고등학교",
      "lat": 37.7050548238,
      "lng": 126.7822346567
    },
    {
      "routeId": "100100358",
      "routeNo": "7727",
      "seq": 6,
      "stationId": "219000448",
      "arsId": "36103",
      "name": "중산1단지",
      "lat": 37.6971774998,
      "lng": 126.7787471106
    },
    {
      "routeId": "100100358",
      "routeNo": "7727",
      "seq": 7,
      "stationId": "219000145",
      "arsId": "36076",
      "name": "명문자동차학원",
      "lat": 37.6941365866,
      "lng": 126.775362885
    },
    {
      "routeId": "100100358",
      "routeNo": "7727",
      "seq": 8,
      "stationId": "219000187",
      "arsId": "36048",
      "name": "홀트학교",
      "lat": 37.6949782309,
      "lng": 126.772157979
    },
    {
      "routeId": "100100358",
      "routeNo": "7727",
      "seq": 9,
      "stationId": "219000186",
      "arsId": "36026",
      "name": "탄현마을6.7단지",
      "lat": 37.6974738184,
      "lng": 126.7694284362
    },
    {
      "routeId": "100100358",
      "routeNo": "7727",
      "seq": 10,
      "stationId": "219000635",
      "arsId": "36061",
      "name": "탄현동문아파트",
      "lat": 37.6996431309,
      "lng": 126.7673369759
    },
    {
      "routeId": "100100358",
      "routeNo": "7727",
      "seq": 11,
      "stationId": "219000316",
      "arsId": "36025",
      "name": "탄현큰마을.동성아파트",
      "lat": 37.6985836372,
      "lng": 126.7656487127
    },
    {
      "routeId": "100100358",
      "routeNo": "7727",
      "seq": 12,
      "stationId": "219000184",
      "arsId": "36044",
      "name": "탄현마을5.6단지",
      "lat": 37.6968167276,
      "lng": 126.7668603192
    },
    {
      "routeId": "100100358",
      "routeNo": "7727",
      "seq": 13,
      "stationId": "219000183",
      "arsId": "36058",
      "name": "상탄초교",
      "lat": 37.6950812854,
      "lng": 126.7673372192
    },
    {
      "routeId": "100100358",
      "routeNo": "7727",
      "seq": 14,
      "stationId": "219000182",
      "arsId": "36032",
      "name": "탄현2단지.삼익아파트",
      "lat": 37.6935220198,
      "lng": 126.7677592067
    },
    {
      "routeId": "100100358",
      "routeNo": "7727",
      "seq": 15,
      "stationId": "219000315",
      "arsId": "36055",
      "name": "탄현효성주은아파트",
      "lat": 37.6906776039,
      "lng": 126.7683157258
    },
    {
      "routeId": "100100358",
      "routeNo": "7727",
      "seq": 16,
      "stationId": "219000299",
      "arsId": "36028",
      "name": "탄현서광아파트",
      "lat": 37.6894578249,
      "lng": 126.7630759116
    },
    {
      "routeId": "100100358",
      "routeNo": "7727",
      "seq": 17,
      "stationId": "219000313",
      "arsId": "36049",
      "name": "동문태영아파트",
      "lat": 37.6861364644,
      "lng": 126.7651087321
    },
    {
      "routeId": "100100358",
      "routeNo": "7727",
      "seq": 18,
      "stationId": "219000312",
      "arsId": "36072",
      "name": "일산시장",
      "lat": 37.6842362612,
      "lng": 126.7699926439
    },
    {
      "routeId": "100100358",
      "routeNo": "7727",
      "seq": 19,
      "stationId": "219000311",
      "arsId": "36618",
      "name": "현대홈타운",
      "lat": 37.6834528376,
      "lng": 126.7737430365
    },
    {
      "routeId": "100100358",
      "routeNo": "7727",
      "seq": 20,
      "stationId": "219000174",
      "arsId": "36099",
      "name": "산들대림아파트.롯데마트",
      "lat": 37.6821279503,
      "lng": 126.7778818037
    },
    {
      "routeId": "100100358",
      "routeNo": "7727",
      "seq": 21,
      "stationId": "219000332",
      "arsId": "36132",
      "name": "신일중학교",
      "lat": 37.6764574603,
      "lng": 126.7754201367
    },
    {
      "routeId": "100100358",
      "routeNo": "7727",
      "seq": 22,
      "stationId": "219000256",
      "arsId": "36123",
      "name": "일산국제컨벤션고교",
      "lat": 37.6730099656,
      "lng": 126.7730729417
    },
    {
      "routeId": "100100358",
      "routeNo": "7727",
      "seq": 23,
      "stationId": "219000255",
      "arsId": "36234",
      "name": "발산중학교",
      "lat": 37.6688153805,
      "lng": 126.7701266833
    },
    {
      "routeId": "100100358",
      "routeNo": "7727",
      "seq": 24,
      "stationId": "219000131",
      "arsId": "36664",
      "name": "일산동부경찰서(중)",
      "lat": 37.6640560924,
      "lng": 126.7694820554
    },
    {
      "routeId": "100100358",
      "routeNo": "7727",
      "seq": 25,
      "stationId": "219000356",
      "arsId": "36695",
      "name": "일산동구청(중)",
      "lat": 37.65778281,
      "lng": 126.7742637862
    },
    {
      "routeId": "100100358",
      "routeNo": "7727",
      "seq": 26,
      "stationId": "219000370",
      "arsId": "36686",
      "name": "마두역(중)",
      "lat": 37.6523303313,
      "lng": 126.7774872562
    },
    {
      "routeId": "100100358",
      "routeNo": "7727",
      "seq": 27,
      "stationId": "219000452",
      "arsId": "36696",
      "name": "호수마을(중)",
      "lat": 37.6484806108,
      "lng": 126.7807155715
    },
    {
      "routeId": "100100358",
      "routeNo": "7727",
      "seq": 28,
      "stationId": "219000454",
      "arsId": "36701",
      "name": "알미공원.일산동구보건소(중)",
      "lat": 37.6457425505,
      "lng": 126.7843323872
    },
    {
      "routeId": "100100358",
      "routeNo": "7727",
      "seq": 29,
      "stationId": "219000368",
      "arsId": "36683",
      "name": "백석역(중)",
      "lat": 37.6444741876,
      "lng": 126.7860278568
    },
    {
      "routeId": "100100358",
      "routeNo": "7727",
      "seq": 30,
      "stationId": "219000163",
      "arsId": "36666",
      "name": "백석동.요진와이시티(중)",
      "lat": 37.6410323961,
      "lng": 126.7905789394
    },
    {
      "routeId": "100100358",
      "routeNo": "7727",
      "seq": 31,
      "stationId": "218000012",
      "arsId": "35621",
      "name": "대곡역(중)",
      "lat": 37.6313426295,
      "lng": 126.8096917307
    },
    {
      "routeId": "100100358",
      "routeNo": "7727",
      "seq": 32,
      "stationId": "218000316",
      "arsId": "35636",
      "name": "고양경찰서.토당청소년수련관(중",
      "lat": 37.6266957553,
      "lng": 126.8302263963
    },
    {
      "routeId": "100100358",
      "routeNo": "7727",
      "seq": 33,
      "stationId": "218000317",
      "arsId": "35637",
      "name": "행신초등학교(중)",
      "lat": 37.6221391263,
      "lng": 126.8375188793
    },
    {
      "routeId": "100100358",
      "routeNo": "7727",
      "seq": 34,
      "stationId": "218000318",
      "arsId": "35634",
      "name": "행신동(중)",
      "lat": 37.6192626317,
      "lng": 126.8420167972
    },
    {
      "routeId": "100100358",
      "routeNo": "7727",
      "seq": 35,
      "stationId": "218000637",
      "arsId": "35007",
      "name": "소만마을(중)",
      "lat": 37.6176977748,
      "lng": 126.8465890587
    },
    {
      "routeId": "100100358",
      "routeNo": "7727",
      "seq": 36,
      "stationId": "218000145",
      "arsId": "35632",
      "name": "서정마을(중)",
      "lat": 37.6157410423,
      "lng": 126.8512979632
    },
    {
      "routeId": "100100358",
      "routeNo": "7727",
      "seq": 37,
      "stationId": "218000144",
      "arsId": "35631",
      "name": "화도교(중)",
      "lat": 37.6086882693,
      "lng": 126.862284768
    },
    {
      "routeId": "100100358",
      "routeNo": "7727",
      "seq": 38,
      "stationId": "218000143",
      "arsId": "35629",
      "name": "화전파출소(중)",
      "lat": 37.606094052,
      "lng": 126.8663057035
    },
    {
      "routeId": "100100358",
      "routeNo": "7727",
      "seq": 39,
      "stationId": "218000142",
      "arsId": "35623",
      "name": "덕은초.덕양중학교(중)",
      "lat": 37.6013782883,
      "lng": 126.8717235657
    },
    {
      "routeId": "100100358",
      "routeNo": "7727",
      "seq": 40,
      "stationId": "218000140",
      "arsId": "35625",
      "name": "덕은동(중)",
      "lat": 37.5954914479,
      "lng": 126.877509279
    },
    {
      "routeId": "100100358",
      "routeNo": "7727",
      "seq": 41,
      "stationId": "111000001",
      "arsId": "12001",
      "name": "덕은교.은평차고지앞",
      "lat": 37.5895807424,
      "lng": 126.8840903371
    },
    {
      "routeId": "100100358",
      "routeNo": "7727",
      "seq": 42,
      "stationId": "111000003",
      "arsId": "12003",
      "name": "수색교",
      "lat": 37.585759,
      "lng": 126.888672
    },
    {
      "routeId": "100100358",
      "routeNo": "7727",
      "seq": 43,
      "stationId": "111000005",
      "arsId": "12005",
      "name": "수색역앞",
      "lat": 37.5832230348,
      "lng": 126.8932380184
    },
    {
      "routeId": "100100358",
      "routeNo": "7727",
      "seq": 44,
      "stationId": "111000007",
      "arsId": "12007",
      "name": "디지털미디어시티역",
      "lat": 37.579047,
      "lng": 126.900505
    },
    {
      "routeId": "100100358",
      "routeNo": "7727",
      "seq": 45,
      "stationId": "112000001",
      "arsId": "13001",
      "name": "북가좌동삼거리",
      "lat": 37.5754463835,
      "lng": 126.9045265135
    },
    {
      "routeId": "100100358",
      "routeNo": "7727",
      "seq": 46,
      "stationId": "112000003",
      "arsId": "13003",
      "name": "DMC래미안e.편한세상요진아파트",
      "lat": 37.5716775164,
      "lng": 126.9096099146
    },
    {
      "routeId": "100100358",
      "routeNo": "7727",
      "seq": 47,
      "stationId": "112000005",
      "arsId": "13005",
      "name": "모래내시장.가좌역",
      "lat": 37.5690774104,
      "lng": 126.9150627853
    },
    {
      "routeId": "100100358",
      "routeNo": "7727",
      "seq": 48,
      "stationId": "112000007",
      "arsId": "13007",
      "name": "사천교",
      "lat": 37.567558,
      "lng": 126.918153
    },
    {
      "routeId": "100100358",
      "routeNo": "7727",
      "seq": 49,
      "stationId": "112000008",
      "arsId": "13008",
      "name": "연희104고지앞.궁동근린공원",
      "lat": 37.56628429,
      "lng": 126.9250825384
    },
    {
      "routeId": "100100358",
      "routeNo": "7727",
      "seq": 50,
      "stationId": "112000010",
      "arsId": "13010",
      "name": "서대문우체국",
      "lat": 37.561955,
      "lng": 126.931992
    },
    {
      "routeId": "100100358",
      "routeNo": "7727",
      "seq": 51,
      "stationId": "112000031",
      "arsId": "13114",
      "name": "연세대학교앞",
      "lat": 37.55982,
      "lng": 126.935305
    },
    {
      "routeId": "100100358",
      "routeNo": "7727",
      "seq": 52,
      "stationId": "112000063",
      "arsId": "13146",
      "name": "연세로.스타광장",
      "lat": 37.55641,
      "lng": 126.936767
    },
    {
      "routeId": "100100358",
      "routeNo": "7727",
      "seq": 53,
      "stationId": "112000176",
      "arsId": "13259",
      "name": "창서초등학교.현대백화점",
      "lat": 37.5566664866,
      "lng": 126.9330023083
    },
    {
      "routeId": "100100358",
      "routeNo": "7727",
      "seq": 54,
      "stationId": "112000061",
      "arsId": "13144",
      "name": "동교동삼거리연희동방면",
      "lat": 37.5586582575,
      "lng": 126.9274994875
    },
    {
      "routeId": "100100358",
      "routeNo": "7727",
      "seq": 55,
      "stationId": "112000064",
      "arsId": "13147",
      "name": "연희동대우아파트",
      "lat": 37.5626233467,
      "lng": 126.9279552211
    },
    {
      "routeId": "100100358",
      "routeNo": "7727",
      "seq": 56,
      "stationId": "112000028",
      "arsId": "13111",
      "name": "연희104고지앞.궁동근린공원",
      "lat": 37.56655,
      "lng": 126.924998
    },
    {
      "routeId": "100100358",
      "routeNo": "7727",
      "seq": 57,
      "stationId": "112000026",
      "arsId": "13109",
      "name": "사천교",
      "lat": 37.5680820886,
      "lng": 126.9175934441
    },
    {
      "routeId": "100100358",
      "routeNo": "7727",
      "seq": 58,
      "stationId": "112000006",
      "arsId": "13006",
      "name": "모래내시장.가좌역",
      "lat": 37.569862,
      "lng": 126.913786
    },
    {
      "routeId": "100100358",
      "routeNo": "7727",
      "seq": 59,
      "stationId": "112000004",
      "arsId": "13004",
      "name": "DMC래미안e.편한세상요진아파트",
      "lat": 37.571577,
      "lng": 126.910313
    },
    {
      "routeId": "100100358",
      "routeNo": "7727",
      "seq": 60,
      "stationId": "112000002",
      "arsId": "13002",
      "name": "북가좌동삼거리",
      "lat": 37.575143,
      "lng": 126.905143
    },
    {
      "routeId": "100100358",
      "routeNo": "7727",
      "seq": 61,
      "stationId": "111000008",
      "arsId": "12008",
      "name": "디지털미디어시티역",
      "lat": 37.578622,
      "lng": 126.901345
    },
    {
      "routeId": "100100358",
      "routeNo": "7727",
      "seq": 62,
      "stationId": "111000006",
      "arsId": "12006",
      "name": "수색역앞",
      "lat": 37.583047,
      "lng": 126.894103
    },
    {
      "routeId": "100100358",
      "routeNo": "7727",
      "seq": 63,
      "stationId": "111000004",
      "arsId": "12004",
      "name": "수색교",
      "lat": 37.584698,
      "lng": 126.89018
    },
    {
      "routeId": "100100358",
      "routeNo": "7727",
      "seq": 64,
      "stationId": "111000002",
      "arsId": "12002",
      "name": "덕은교.은평차고지앞",
      "lat": 37.5891649798,
      "lng": 126.8847866387
    },
    {
      "routeId": "100100358",
      "routeNo": "7727",
      "seq": 65,
      "stationId": "218000139",
      "arsId": "35624",
      "name": "덕은동(중)",
      "lat": 37.59472668,
      "lng": 126.8786090119
    },
    {
      "routeId": "100100358",
      "routeNo": "7727",
      "seq": 66,
      "stationId": "218000137",
      "arsId": "35622",
      "name": "덕은초.덕양중학교(중)",
      "lat": 37.6009910089,
      "lng": 126.8722120652
    },
    {
      "routeId": "100100358",
      "routeNo": "7727",
      "seq": 67,
      "stationId": "218000136",
      "arsId": "35628",
      "name": "화전파출소(중)",
      "lat": 37.6058788364,
      "lng": 126.8668060013
    },
    {
      "routeId": "100100358",
      "routeNo": "7727",
      "seq": 68,
      "stationId": "218000135",
      "arsId": "35630",
      "name": "화도교(중)",
      "lat": 37.6096145748,
      "lng": 126.8610610368
    },
    {
      "routeId": "100100358",
      "routeNo": "7727",
      "seq": 69,
      "stationId": "218000134",
      "arsId": "35627",
      "name": "서정마을(중)",
      "lat": 37.6153888968,
      "lng": 126.8520384492
    },
    {
      "routeId": "100100358",
      "routeNo": "7727",
      "seq": 70,
      "stationId": "218000636",
      "arsId": "35008",
      "name": "소만마을(중)",
      "lat": 37.6174966326,
      "lng": 126.8474323783
    },
    {
      "routeId": "100100358",
      "routeNo": "7727",
      "seq": 71,
      "stationId": "218000078",
      "arsId": "35633",
      "name": "행신동(중)",
      "lat": 37.6190792821,
      "lng": 126.8426835669
    },
    {
      "routeId": "100100358",
      "routeNo": "7727",
      "seq": 72,
      "stationId": "218000319",
      "arsId": "35626",
      "name": "행신초등학교(중)",
      "lat": 37.621931992,
      "lng": 126.8380819022
    },
    {
      "routeId": "100100358",
      "routeNo": "7727",
      "seq": 73,
      "stationId": "218000320",
      "arsId": "35635",
      "name": "고양경찰서.토당청소년수련관(중",
      "lat": 37.6273243299,
      "lng": 126.8287078828
    },
    {
      "routeId": "100100358",
      "routeNo": "7727",
      "seq": 74,
      "stationId": "218000202",
      "arsId": "35620",
      "name": "대곡역(중)",
      "lat": 37.6313761982,
      "lng": 126.8119489653
    },
    {
      "routeId": "100100358",
      "routeNo": "7727",
      "seq": 75,
      "stationId": "219000386",
      "arsId": "36667",
      "name": "백석동.요진와이시티(중)",
      "lat": 37.6408063436,
      "lng": 126.7910877855
    },
    {
      "routeId": "100100358",
      "routeNo": "7727",
      "seq": 76,
      "stationId": "219000385",
      "arsId": "36682",
      "name": "안산공원.일산동구보건소(중)",
      "lat": 37.6454580681,
      "lng": 126.784889386
    },
    {
      "routeId": "100100358",
      "routeNo": "7727",
      "seq": 77,
      "stationId": "219000453",
      "arsId": "36684",
      "name": "흰돌마을(중)",
      "lat": 37.648137505,
      "lng": 126.7813499497
    },
    {
      "routeId": "100100358",
      "routeNo": "7727",
      "seq": 78,
      "stationId": "219000383",
      "arsId": "36685",
      "name": "마두역(중)",
      "lat": 37.6517480969,
      "lng": 126.7779722148
    },
    {
      "routeId": "100100358",
      "routeNo": "7727",
      "seq": 79,
      "stationId": "219000191",
      "arsId": "36694",
      "name": "일산동구청(중)",
      "lat": 37.6573952523,
      "lng": 126.7746770366
    },
    {
      "routeId": "100100358",
      "routeNo": "7727",
      "seq": 80,
      "stationId": "219000130",
      "arsId": "36665",
      "name": "일산동부경찰서(중)",
      "lat": 37.6636544237,
      "lng": 126.770040181
    },
    {
      "routeId": "100100358",
      "routeNo": "7727",
      "seq": 81,
      "stationId": "219000263",
      "arsId": "36245",
      "name": "발산중학교",
      "lat": 37.6689938327,
      "lng": 126.7707980807
    },
    {
      "routeId": "100100358",
      "routeNo": "7727",
      "seq": 82,
      "stationId": "219000262",
      "arsId": "36138",
      "name": "일산국제컨벤션고교",
      "lat": 37.672899266,
      "lng": 126.7735137342
    },
    {
      "routeId": "100100358",
      "routeNo": "7727",
      "seq": 83,
      "stationId": "219000326",
      "arsId": "36133",
      "name": "신일중학교.밤가시마을",
      "lat": 37.6763759158,
      "lng": 126.7759238552
    },
    {
      "routeId": "100100358",
      "routeNo": "7727",
      "seq": 84,
      "stationId": "219000592",
      "arsId": "36100",
      "name": "산들마을입구",
      "lat": 37.683161326,
      "lng": 126.7766486352
    },
    {
      "routeId": "100100358",
      "routeNo": "7727",
      "seq": 85,
      "stationId": "219000302",
      "arsId": "36070",
      "name": "현대홈타운",
      "lat": 37.6837028644,
      "lng": 126.7736763294
    },
    {
      "routeId": "100100358",
      "routeNo": "7727",
      "seq": 86,
      "stationId": "219000301",
      "arsId": "36082",
      "name": "일산시장",
      "lat": 37.6844696162,
      "lng": 126.7699426386
    },
    {
      "routeId": "100100358",
      "routeNo": "7727",
      "seq": 87,
      "stationId": "219000300",
      "arsId": "36030",
      "name": "동문아파트",
      "lat": 37.6863364858,
      "lng": 126.7652087425
    },
    {
      "routeId": "100100358",
      "routeNo": "7727",
      "seq": 88,
      "stationId": "219000314",
      "arsId": "36045",
      "name": "일신삼익아파트",
      "lat": 37.6893162369,
      "lng": 126.7633197179
    },
    {
      "routeId": "100100358",
      "routeNo": "7727",
      "seq": 89,
      "stationId": "219000298",
      "arsId": "36029",
      "name": "일산동문1차아파트",
      "lat": 37.6900206022,
      "lng": 126.7670161095
    },
    {
      "routeId": "100100358",
      "routeNo": "7727",
      "seq": 90,
      "stationId": "219000297",
      "arsId": "36046",
      "name": "탄현2지구.풍림아파트",
      "lat": 37.691993351,
      "lng": 126.7684136576
    },
    {
      "routeId": "100100358",
      "routeNo": "7727",
      "seq": 91,
      "stationId": "219000143",
      "arsId": "36057",
      "name": "탄현2단지.삼익아파트",
      "lat": 37.6935722621,
      "lng": 126.7679773591
    },
    {
      "routeId": "100100358",
      "routeNo": "7727",
      "seq": 92,
      "stationId": "219000142",
      "arsId": "36033",
      "name": "일산동중학교",
      "lat": 37.6951012538,
      "lng": 126.7675648181
    },
    {
      "routeId": "100100358",
      "routeNo": "7727",
      "seq": 93,
      "stationId": "219000141",
      "arsId": "36617",
      "name": "탄현마을5.6단지",
      "lat": 37.696911117,
      "lng": 126.7670467695
    },
    {
      "routeId": "100100358",
      "routeNo": "7727",
      "seq": 94,
      "stationId": "219000296",
      "arsId": "36024",
      "name": "탄현큰마을.동성아파트",
      "lat": 37.6987814561,
      "lng": 126.765953006
    },
    {
      "routeId": "100100358",
      "routeNo": "7727",
      "seq": 95,
      "stationId": "219000636",
      "arsId": "36060",
      "name": "탄현동문아파트",
      "lat": 37.6994472791,
      "lng": 126.7670177593
    },
    {
      "routeId": "100100358",
      "routeNo": "7727",
      "seq": 96,
      "stationId": "219000139",
      "arsId": "36047",
      "name": "탄현마을6.7단지",
      "lat": 37.6966994664,
      "lng": 126.7697143462
    },
    {
      "routeId": "100100358",
      "routeNo": "7727",
      "seq": 97,
      "stationId": "219000138",
      "arsId": "36031",
      "name": "홀트학교",
      "lat": 37.6946751347,
      "lng": 126.7720813138
    },
    {
      "routeId": "100100358",
      "routeNo": "7727",
      "seq": 98,
      "stationId": "219000180",
      "arsId": "36108",
      "name": "한뫼도서관.명문자동차학원",
      "lat": 37.6938904537,
      "lng": 126.7755556676
    },
    {
      "routeId": "100100358",
      "routeNo": "7727",
      "seq": 99,
      "stationId": "219000447",
      "arsId": "36109",
      "name": "중산1단지",
      "lat": 37.6960859082,
      "lng": 126.7786293017
    },
    {
      "routeId": "100100358",
      "routeNo": "7727",
      "seq": 100,
      "stationId": "219000771",
      "arsId": "36621",
      "name": "고양송암고등학교",
      "lat": 37.7049517573,
      "lng": 126.7825355049
    },
    {
      "routeId": "100100358",
      "routeNo": "7727",
      "seq": 101,
      "stationId": "219000321",
      "arsId": "36640",
      "name": "부대앞",
      "lat": 37.7072317842,
      "lng": 126.7837155833
    },
    {
      "routeId": "100100358",
      "routeNo": "7727",
      "seq": 102,
      "stationId": "219000320",
      "arsId": "36302",
      "name": "상감천마을",
      "lat": 37.7092286211,
      "lng": 126.7855326265
    },
    {
      "routeId": "100100358",
      "routeNo": "7727",
      "seq": 103,
      "stationId": "219000029",
      "arsId": "36297",
      "name": "청석궁.성석동감내",
      "lat": 37.7139634502,
      "lng": 126.7886365378
    },
    {
      "routeId": "100100358",
      "routeNo": "7727",
      "seq": 104,
      "stationId": "219000699",
      "arsId": "36298",
      "name": "설문동",
      "lat": 37.7161630572,
      "lng": 126.7906122482
    }
  ]
}