{
  "routeId": "100100093",
  "routeNo": "640",
  "collectedAt": "2026-05-15T05:03:47.160Z",
  "stops": [
    {
      "routeId": "100100093",
      "routeNo": "640",
      "seq": 1,
      "stationId": "114000190",
      "arsId": "15293",
      "name": "신월동우성상가",
      "lat": 37.52179,
      "lng": 126.833838
    },
    {
      "routeId": "100100093",
      "routeNo": "640",
      "seq": 2,
      "stationId": "114000189",
      "arsId": "15292",
      "name": "신월문화체육센터",
      "lat": 37.519969,
      "lng": 126.835249
    },
    {
      "routeId": "100100093",
      "routeNo": "640",
      "seq": 3,
      "stationId": "114000119",
      "arsId": "15222",
      "name": "한빛종합사회복지관",
      "lat": 37.521257,
      "lng": 126.839252
    },
    {
      "routeId": "100100093",
      "routeNo": "640",
      "seq": 4,
      "stationId": "114000118",
      "arsId": "15221",
      "name": "강서초등학교.신월4동주민센터",
      "lat": 37.5218776213,
      "lng": 126.8419309679
    },
    {
      "routeId": "100100093",
      "routeNo": "640",
      "seq": 5,
      "stationId": "114000117",
      "arsId": "15220",
      "name": "신월2동주민센터입구",
      "lat": 37.522757,
      "lng": 126.84569
    },
    {
      "routeId": "100100093",
      "routeNo": "640",
      "seq": 6,
      "stationId": "114000116",
      "arsId": "15219",
      "name": "양강중학교",
      "lat": 37.5237110271,
      "lng": 126.8499936
    },
    {
      "routeId": "100100093",
      "routeNo": "640",
      "seq": 7,
      "stationId": "114000171",
      "arsId": "15274",
      "name": "신정역(은행정).신정4동주민센터",
      "lat": 37.5246301301,
      "lng": 126.8542989447
    },
    {
      "routeId": "100100093",
      "routeNo": "640",
      "seq": 8,
      "stationId": "114000170",
      "arsId": "15273",
      "name": "신서고등학교.영상고등학교입구",
      "lat": 37.5253957175,
      "lng": 126.8599725442
    },
    {
      "routeId": "100100093",
      "routeNo": "640",
      "seq": 9,
      "stationId": "114000169",
      "arsId": "15272",
      "name": "목동역8번출구.목동오거리",
      "lat": 37.5258057871,
      "lng": 126.8631068968
    },
    {
      "routeId": "100100093",
      "routeNo": "640",
      "seq": 10,
      "stationId": "114000162",
      "arsId": "15265",
      "name": "목동7단지",
      "lat": 37.525588,
      "lng": 126.867124
    },
    {
      "routeId": "100100093",
      "routeNo": "640",
      "seq": 11,
      "stationId": "114000161",
      "arsId": "15264",
      "name": "오목교역8번출구.대학빌딩",
      "lat": 37.524726482,
      "lng": 126.8728637695
    },
    {
      "routeId": "100100093",
      "routeNo": "640",
      "seq": 12,
      "stationId": "114000070",
      "arsId": "15173",
      "name": "오목교역.동신한방병원",
      "lat": 37.5240854759,
      "lng": 126.8769218981
    },
    {
      "routeId": "100100093",
      "routeNo": "640",
      "seq": 13,
      "stationId": "118000119",
      "arsId": "19204",
      "name": "관악고등학교",
      "lat": 37.5229942584,
      "lng": 126.8840591861
    },
    {
      "routeId": "100100093",
      "routeNo": "640",
      "seq": 14,
      "stationId": "118000118",
      "arsId": "19203",
      "name": "양평신동아아파트",
      "lat": 37.5224802186,
      "lng": 126.8873567458
    },
    {
      "routeId": "100100093",
      "routeNo": "640",
      "seq": 15,
      "stationId": "118000081",
      "arsId": "19166",
      "name": "영등포교보생명",
      "lat": 37.5217213888,
      "lng": 126.8920699266
    },
    {
      "routeId": "100100093",
      "routeNo": "640",
      "seq": 16,
      "stationId": "118000078",
      "arsId": "19163",
      "name": "당산동진로아파트",
      "lat": 37.5210022006,
      "lng": 126.8969911224
    },
    {
      "routeId": "100100093",
      "routeNo": "640",
      "seq": 17,
      "stationId": "118000033",
      "arsId": "19118",
      "name": "김안과병원",
      "lat": 37.5200710672,
      "lng": 126.9030257176
    },
    {
      "routeId": "100100093",
      "routeNo": "640",
      "seq": 18,
      "stationId": "118000024",
      "arsId": "19109",
      "name": "영등포시장",
      "lat": 37.5194457626,
      "lng": 126.9064498646
    },
    {
      "routeId": "100100093",
      "routeNo": "640",
      "seq": 19,
      "stationId": "118000023",
      "arsId": "19107",
      "name": "영등포로터리",
      "lat": 37.5189144362,
      "lng": 126.909290557
    },
    {
      "routeId": "100100093",
      "routeNo": "640",
      "seq": 20,
      "stationId": "118000194",
      "arsId": "19279",
      "name": "신길역5호선",
      "lat": 37.518563,
      "lng": 126.914837
    },
    {
      "routeId": "100100093",
      "routeNo": "640",
      "seq": 21,
      "stationId": "118000563",
      "arsId": "19300",
      "name": "신길역1호선",
      "lat": 37.5167591036,
      "lng": 126.9166368877
    },
    {
      "routeId": "100100093",
      "routeNo": "640",
      "seq": 22,
      "stationId": "118000141",
      "arsId": "19226",
      "name": "신길1동새마을금고",
      "lat": 37.5136409433,
      "lng": 126.9200351486
    },
    {
      "routeId": "100100093",
      "routeNo": "640",
      "seq": 23,
      "stationId": "118000015",
      "arsId": "19015",
      "name": "대방역",
      "lat": 37.5126573835,
      "lng": 126.9248245911
    },
    {
      "routeId": "100100093",
      "routeNo": "640",
      "seq": 24,
      "stationId": "119000007",
      "arsId": "20007",
      "name": "현대아파트",
      "lat": 37.513174,
      "lng": 126.931437
    },
    {
      "routeId": "100100093",
      "routeNo": "640",
      "seq": 25,
      "stationId": "119000009",
      "arsId": "20009",
      "name": "노량진수산시장.CTS기독교TV",
      "lat": 37.513423,
      "lng": 126.938456
    },
    {
      "routeId": "100100093",
      "routeNo": "640",
      "seq": 26,
      "stationId": "119000011",
      "arsId": "20011",
      "name": "노량진역",
      "lat": 37.513733,
      "lng": 126.943811
    },
    {
      "routeId": "100100093",
      "routeNo": "640",
      "seq": 27,
      "stationId": "119000013",
      "arsId": "20013",
      "name": "노들역",
      "lat": 37.512825,
      "lng": 126.949256
    },
    {
      "routeId": "100100093",
      "routeNo": "640",
      "seq": 28,
      "stationId": "119000293",
      "arsId": "20251",
      "name": "동작실버센터입구.용양봉저정",
      "lat": 37.5131208822,
      "lng": 126.956610643
    },
    {
      "routeId": "100100093",
      "routeNo": "640",
      "seq": 29,
      "stationId": "119000030",
      "arsId": "20123",
      "name": "흑석동효사정앞",
      "lat": 37.511554,
      "lng": 126.960745
    },
    {
      "routeId": "100100093",
      "routeNo": "640",
      "seq": 30,
      "stationId": "119000033",
      "arsId": "20126",
      "name": "흑석역.명수대현대아파트",
      "lat": 37.5074984059,
      "lng": 126.9650447528
    },
    {
      "routeId": "100100093",
      "routeNo": "640",
      "seq": 31,
      "stationId": "119000036",
      "arsId": "20129",
      "name": "비계",
      "lat": 37.50651,
      "lng": 126.967675
    },
    {
      "routeId": "100100093",
      "routeNo": "640",
      "seq": 32,
      "stationId": "119000039",
      "arsId": "20132",
      "name": "흑석동한강현대아파트",
      "lat": 37.505609,
      "lng": 126.971971
    },
    {
      "routeId": "100100093",
      "routeNo": "640",
      "seq": 33,
      "stationId": "119000040",
      "arsId": "20133",
      "name": "동작역.국립현충원",
      "lat": 37.502586,
      "lng": 126.976865
    },
    {
      "routeId": "100100093",
      "routeNo": "640",
      "seq": 34,
      "stationId": "121000024",
      "arsId": "22024",
      "name": "구반포역.세화고등학교",
      "lat": 37.501735,
      "lng": 126.98907
    },
    {
      "routeId": "100100093",
      "routeNo": "640",
      "seq": 35,
      "stationId": "121000022",
      "arsId": "22022",
      "name": "신반포역.세화여중고",
      "lat": 37.503052,
      "lng": 126.994697
    },
    {
      "routeId": "100100093",
      "routeNo": "640",
      "seq": 36,
      "stationId": "121000020",
      "arsId": "22020",
      "name": "고속터미널",
      "lat": 37.505843,
      "lng": 127.003922
    },
    {
      "routeId": "100100093",
      "routeNo": "640",
      "seq": 37,
      "stationId": "121000018",
      "arsId": "22018",
      "name": "반포역",
      "lat": 37.507995,
      "lng": 127.011155
    },
    {
      "routeId": "100100093",
      "routeNo": "640",
      "seq": 38,
      "stationId": "121000114",
      "arsId": "22190",
      "name": "논현역6번출구",
      "lat": 37.5102908187,
      "lng": 127.0192130073
    },
    {
      "routeId": "100100093",
      "routeNo": "640",
      "seq": 39,
      "stationId": "121000013",
      "arsId": "22013",
      "name": "논현역",
      "lat": 37.5072264964,
      "lng": 127.0230319441
    },
    {
      "routeId": "100100093",
      "routeNo": "640",
      "seq": 40,
      "stationId": "121000097",
      "arsId": "22173",
      "name": "강남역10번출구",
      "lat": 37.5001,
      "lng": 127.026307
    },
    {
      "routeId": "100100093",
      "routeNo": "640",
      "seq": 41,
      "stationId": "121000091",
      "arsId": "22167",
      "name": "강남역9번출구",
      "lat": 37.4977839964,
      "lng": 127.0266040758
    },
    {
      "routeId": "100100093",
      "routeNo": "640",
      "seq": 42,
      "stationId": "121000090",
      "arsId": "22166",
      "name": "진흥아파트",
      "lat": 37.497889,
      "lng": 127.023901
    },
    {
      "routeId": "100100093",
      "routeNo": "640",
      "seq": 43,
      "stationId": "121000088",
      "arsId": "22164",
      "name": "서초푸르지오써밋.롯데캐슬클래식",
      "lat": 37.5014758287,
      "lng": 127.0221683272
    },
    {
      "routeId": "100100093",
      "routeNo": "640",
      "seq": 44,
      "stationId": "121000118",
      "arsId": "22194",
      "name": "제일약품사옥",
      "lat": 37.503387,
      "lng": 127.02025
    },
    {
      "routeId": "100100093",
      "routeNo": "640",
      "seq": 45,
      "stationId": "121000119",
      "arsId": "22195",
      "name": "사평역",
      "lat": 37.504917,
      "lng": 127.013887
    },
    {
      "routeId": "100100093",
      "routeNo": "640",
      "seq": 46,
      "stationId": "121000019",
      "arsId": "22019",
      "name": "고속터미널",
      "lat": 37.506295,
      "lng": 127.005137
    },
    {
      "routeId": "100100093",
      "routeNo": "640",
      "seq": 47,
      "stationId": "121000021",
      "arsId": "22021",
      "name": "신반포역.세화여중고",
      "lat": 37.5034578584,
      "lng": 126.9956954487
    },
    {
      "routeId": "100100093",
      "routeNo": "640",
      "seq": 48,
      "stationId": "121000023",
      "arsId": "22023",
      "name": "구반포역.세화고등학교",
      "lat": 37.5020371598,
      "lng": 126.9899765867
    },
    {
      "routeId": "100100093",
      "routeNo": "640",
      "seq": 49,
      "stationId": "119000041",
      "arsId": "20134",
      "name": "동작역.국립현충원",
      "lat": 37.503188597,
      "lng": 126.9766525988
    },
    {
      "routeId": "100100093",
      "routeNo": "640",
      "seq": 50,
      "stationId": "119000038",
      "arsId": "20131",
      "name": "흑석동한강현대아파트",
      "lat": 37.505867,
      "lng": 126.971748
    },
    {
      "routeId": "100100093",
      "routeNo": "640",
      "seq": 51,
      "stationId": "119000037",
      "arsId": "20130",
      "name": "비계",
      "lat": 37.5064370015,
      "lng": 126.9685844969
    },
    {
      "routeId": "100100093",
      "routeNo": "640",
      "seq": 52,
      "stationId": "119000034",
      "arsId": "20127",
      "name": "흑석역.명수대현대아파트",
      "lat": 37.5075850724,
      "lng": 126.9655921789
    },
    {
      "routeId": "100100093",
      "routeNo": "640",
      "seq": 53,
      "stationId": "119000031",
      "arsId": "20124",
      "name": "흑석동효사정앞",
      "lat": 37.5115728985,
      "lng": 126.9612375315
    },
    {
      "routeId": "100100093",
      "routeNo": "640",
      "seq": 54,
      "stationId": "119000014",
      "arsId": "20014",
      "name": "노들역",
      "lat": 37.512734203,
      "lng": 126.9509621786
    },
    {
      "routeId": "100100093",
      "routeNo": "640",
      "seq": 55,
      "stationId": "119000012",
      "arsId": "20012",
      "name": "노량진역",
      "lat": 37.5138325876,
      "lng": 126.9447114504
    },
    {
      "routeId": "100100093",
      "routeNo": "640",
      "seq": 56,
      "stationId": "119000010",
      "arsId": "20010",
      "name": "노량진수산시장.CTS기독교TV",
      "lat": 37.5134800797,
      "lng": 126.9388655754
    },
    {
      "routeId": "100100093",
      "routeNo": "640",
      "seq": 57,
      "stationId": "119000008",
      "arsId": "20008",
      "name": "현대아파트.유한양행",
      "lat": 37.5132368488,
      "lng": 126.9323737344
    },
    {
      "routeId": "100100093",
      "routeNo": "640",
      "seq": 58,
      "stationId": "118000525",
      "arsId": "19430",
      "name": "대방역6번출구",
      "lat": 37.513045,
      "lng": 126.924159
    },
    {
      "routeId": "100100093",
      "routeNo": "640",
      "seq": 59,
      "stationId": "118000142",
      "arsId": "19227",
      "name": "신길1동새마을금고",
      "lat": 37.5140830291,
      "lng": 126.9195131812
    },
    {
      "routeId": "100100093",
      "routeNo": "640",
      "seq": 60,
      "stationId": "118000140",
      "arsId": "19225",
      "name": "신길역1번출구",
      "lat": 37.516815,
      "lng": 126.916956
    },
    {
      "routeId": "100100093",
      "routeNo": "640",
      "seq": 61,
      "stationId": "118000021",
      "arsId": "19106",
      "name": "영등포로터리",
      "lat": 37.519063,
      "lng": 126.909852
    },
    {
      "routeId": "100100093",
      "routeNo": "640",
      "seq": 62,
      "stationId": "118000020",
      "arsId": "19105",
      "name": "영등포시장",
      "lat": 37.5197345469,
      "lng": 126.9066538832
    },
    {
      "routeId": "100100093",
      "routeNo": "640",
      "seq": 63,
      "stationId": "118000034",
      "arsId": "19119",
      "name": "김안과병원",
      "lat": 37.5204160307,
      "lng": 126.9028340777
    },
    {
      "routeId": "100100093",
      "routeNo": "640",
      "seq": 64,
      "stationId": "118000077",
      "arsId": "19162",
      "name": "당산동진로아파트",
      "lat": 37.5213255961,
      "lng": 126.8968775442
    },
    {
      "routeId": "100100093",
      "routeNo": "640",
      "seq": 65,
      "stationId": "118000080",
      "arsId": "19165",
      "name": "양남사거리",
      "lat": 37.522120309,
      "lng": 126.8917785954
    },
    {
      "routeId": "100100093",
      "routeNo": "640",
      "seq": 66,
      "stationId": "118000117",
      "arsId": "19202",
      "name": "양평1동주민센터",
      "lat": 37.5227527711,
      "lng": 126.8881931453
    },
    {
      "routeId": "100100093",
      "routeNo": "640",
      "seq": 67,
      "stationId": "118000120",
      "arsId": "19205",
      "name": "관악고등학교",
      "lat": 37.523161734,
      "lng": 126.8848486189
    },
    {
      "routeId": "100100093",
      "routeNo": "640",
      "seq": 68,
      "stationId": "114000065",
      "arsId": "15168",
      "name": "오목교역.동신한방병원",
      "lat": 37.524447,
      "lng": 126.876825
    },
    {
      "routeId": "100100093",
      "routeNo": "640",
      "seq": 69,
      "stationId": "114000064",
      "arsId": "15167",
      "name": "오목교역1번출구.대학빌딩",
      "lat": 37.524957,
      "lng": 126.873313
    },
    {
      "routeId": "100100093",
      "routeNo": "640",
      "seq": 70,
      "stationId": "114000063",
      "arsId": "15166",
      "name": "목동7단지.종로학원",
      "lat": 37.525671,
      "lng": 126.868759
    },
    {
      "routeId": "100100093",
      "routeNo": "640",
      "seq": 71,
      "stationId": "114000182",
      "arsId": "15285",
      "name": "목동역.목동오거리",
      "lat": 37.5259586072,
      "lng": 126.8627909553
    },
    {
      "routeId": "100100093",
      "routeNo": "640",
      "seq": 72,
      "stationId": "114000183",
      "arsId": "15286",
      "name": "신서고교.영상고교입구",
      "lat": 37.5256530348,
      "lng": 126.8603986015
    },
    {
      "routeId": "100100093",
      "routeNo": "640",
      "seq": 73,
      "stationId": "114000184",
      "arsId": "15287",
      "name": "신정역(은행정).신정4동주민센터",
      "lat": 37.5248637099,
      "lng": 126.8539719864
    },
    {
      "routeId": "100100093",
      "routeNo": "640",
      "seq": 74,
      "stationId": "114000207",
      "arsId": "15311",
      "name": "양강중학교",
      "lat": 37.52385,
      "lng": 126.849502
    },
    {
      "routeId": "100100093",
      "routeNo": "640",
      "seq": 75,
      "stationId": "114000208",
      "arsId": "15312",
      "name": "신월2동주민센터입구.경창전통시장",
      "lat": 37.5231005832,
      "lng": 126.8460404234
    },
    {
      "routeId": "100100093",
      "routeNo": "640",
      "seq": 76,
      "stationId": "114000209",
      "arsId": "15313",
      "name": "강서초등학교.신월4동주민센터",
      "lat": 37.522025949,
      "lng": 126.8416789569
    },
    {
      "routeId": "100100093",
      "routeNo": "640",
      "seq": 77,
      "stationId": "114000210",
      "arsId": "15314",
      "name": "한빛종합사회복지관",
      "lat": 37.521342,
      "lng": 126.838743
    },
    {
      "routeId": "100100093",
      "routeNo": "640",
      "seq": 78,
      "stationId": "114000192",
      "arsId": "15295",
      "name": "신월문화체육센터",
      "lat": 37.520117,
      "lng": 126.836198
    },
    {
      "routeId": "100100093",
      "routeNo": "640",
      "seq": 79,
      "stationId": "114000193",
      "arsId": "15296",
      "name": "신월동우성상가",
      "lat": 37.521717,
      "lng": 126.83399
    }
  ]
}