{
  "routeId": "100100363",
  "collectedAt": "2026-05-25T23:00:30.286Z",
  "source": "seoul_api",
  "stops": [
    {
      "routeId": "100100363",
      "seq": 1,
      "stationId": "111000907",
      "arsId": "35331",
      "name": "은평공영차고지",
      "lat": 37.591802,
      "lng": 126.88381,
      "direction": "파크빌아파트"
    },
    {
      "routeId": "100100363",
      "seq": 2,
      "stationId": "111000225",
      "arsId": "12315",
      "name": "덕은교.은평차고지앞",
      "lat": 37.589961128,
      "lng": 126.8834469451,
      "direction": "파크빌아파트"
    },
    {
      "routeId": "100100363",
      "seq": 3,
      "stationId": "113000438",
      "arsId": "14340",
      "name": "수색교",
      "lat": 37.587217,
      "lng": 126.883985,
      "direction": "파크빌아파트"
    },
    {
      "routeId": "100100363",
      "seq": 4,
      "stationId": "113000437",
      "arsId": "14339",
      "name": "월드컵파크11.12단지",
      "lat": 37.5862704288,
      "lng": 126.8808993224,
      "direction": "파크빌아파트"
    },
    {
      "routeId": "100100363",
      "seq": 5,
      "stationId": "113000432",
      "arsId": "14335",
      "name": "월드컵파크9.10.11.12단지",
      "lat": 37.584397,
      "lng": 126.879965,
      "direction": "파크빌아파트"
    },
    {
      "routeId": "100100363",
      "seq": 6,
      "stationId": "113000454",
      "arsId": "14355",
      "name": "DMC첨단산업센터",
      "lat": 37.5836187524,
      "lng": 126.886622684,
      "direction": "파크빌아파트"
    },
    {
      "routeId": "100100363",
      "seq": 7,
      "stationId": "111001114",
      "arsId": "14363",
      "name": "MBC",
      "lat": 37.581821,
      "lng": 126.890791,
      "direction": "파크빌아파트"
    },
    {
      "routeId": "100100363",
      "seq": 8,
      "stationId": "113000452",
      "arsId": "14357",
      "name": "SBS.YTN",
      "lat": 37.579836,
      "lng": 126.893961,
      "direction": "파크빌아파트"
    },
    {
      "routeId": "100100363",
      "seq": 9,
      "stationId": "113000450",
      "arsId": "14359",
      "name": "공항철도디지털미디어시티역",
      "lat": 37.576962,
      "lng": 126.8982,
      "direction": "파크빌아파트"
    },
    {
      "routeId": "100100363",
      "seq": 10,
      "stationId": "113000449",
      "arsId": "14360",
      "name": "디지털미디어시티역3번출구",
      "lat": 37.5753552366,
      "lng": 126.900584183,
      "direction": "파크빌아파트"
    },
    {
      "routeId": "100100363",
      "seq": 11,
      "stationId": "113000445",
      "arsId": "14347",
      "name": "청구아파트.참누리아파트",
      "lat": 37.5738331722,
      "lng": 126.9031032213,
      "direction": "파크빌아파트"
    },
    {
      "routeId": "100100363",
      "seq": 12,
      "stationId": "113000443",
      "arsId": "14349",
      "name": "중동현대아파트",
      "lat": 37.571463,
      "lng": 126.907287,
      "direction": "파크빌아파트"
    },
    {
      "routeId": "100100363",
      "seq": 13,
      "stationId": "113000441",
      "arsId": "14351",
      "name": "가좌행복주택.건영월드컵아파트",
      "lat": 37.569305,
      "lng": 126.912038,
      "direction": "파크빌아파트"
    },
    {
      "routeId": "100100363",
      "seq": 14,
      "stationId": "113000496",
      "arsId": "14343",
      "name": "가좌역",
      "lat": 37.5678973956,
      "lng": 126.9153689271,
      "direction": "파크빌아파트"
    },
    {
      "routeId": "100100363",
      "seq": 15,
      "stationId": "113000440",
      "arsId": "14352",
      "name": "월드컵아이파크",
      "lat": 37.56673,
      "lng": 126.913607,
      "direction": "파크빌아파트"
    },
    {
      "routeId": "100100363",
      "seq": 16,
      "stationId": "113000094",
      "arsId": "14185",
      "name": "성산2교",
      "lat": 37.5642538566,
      "lng": 126.9124764414,
      "direction": "파크빌아파트"
    },
    {
      "routeId": "100100363",
      "seq": 17,
      "stationId": "113000097",
      "arsId": "14188",
      "name": "성미약수터",
      "lat": 37.5624635723,
      "lng": 126.9140662478,
      "direction": "파크빌아파트"
    },
    {
      "routeId": "100100363",
      "seq": 18,
      "stationId": "113000099",
      "arsId": "14190",
      "name": "경성중고.홍대부속여중고입구",
      "lat": 37.5596512854,
      "lng": 126.9166140242,
      "direction": "파크빌아파트"
    },
    {
      "routeId": "100100363",
      "seq": 19,
      "stationId": "113000102",
      "arsId": "14193",
      "name": "아만티호텔서울",
      "lat": 37.5578790449,
      "lng": 126.9182029073,
      "direction": "파크빌아파트"
    },
    {
      "routeId": "100100363",
      "seq": 20,
      "stationId": "113000090",
      "arsId": "14181",
      "name": "서서울농협홍대역점",
      "lat": 37.556592,
      "lng": 126.91971,
      "direction": "파크빌아파트"
    },
    {
      "routeId": "100100363",
      "seq": 21,
      "stationId": "113000505",
      "arsId": " ",
      "name": "홍대입구역(가상)",
      "lat": 37.5552260552,
      "lng": 126.9218643721,
      "direction": "파크빌아파트"
    },
    {
      "routeId": "100100363",
      "seq": 22,
      "stationId": "113000422",
      "arsId": "14015",
      "name": "홍대입구역",
      "lat": 37.556641,
      "lng": 126.923466,
      "direction": "파크빌아파트"
    },
    {
      "routeId": "100100363",
      "seq": 23,
      "stationId": "112000064",
      "arsId": "13147",
      "name": "연희동대우아파트",
      "lat": 37.5626233467,
      "lng": 126.9279552211,
      "direction": "파크빌아파트"
    },
    {
      "routeId": "100100363",
      "seq": 24,
      "stationId": "112000010",
      "arsId": "13010",
      "name": "서대문우체국",
      "lat": 37.561955,
      "lng": 126.931992,
      "direction": "파크빌아파트"
    },
    {
      "routeId": "100100363",
      "seq": 25,
      "stationId": "112000012",
      "arsId": "13012",
      "name": "연세대앞",
      "lat": 37.559959,
      "lng": 126.935341,
      "direction": "파크빌아파트"
    },
    {
      "routeId": "100100363",
      "seq": 26,
      "stationId": "112000014",
      "arsId": "13014",
      "name": "세브란스병원앞",
      "lat": 37.5599674551,
      "lng": 126.9384506818,
      "direction": "파크빌아파트"
    },
    {
      "routeId": "100100363",
      "seq": 27,
      "stationId": "112000016",
      "arsId": "13016",
      "name": "이대후문",
      "lat": 37.5626001751,
      "lng": 126.9433012302,
      "direction": "파크빌아파트"
    },
    {
      "routeId": "100100363",
      "seq": 28,
      "stationId": "112000037",
      "arsId": "13120",
      "name": "이대부고",
      "lat": 37.565531,
      "lng": 126.946423,
      "direction": "파크빌아파트"
    },
    {
      "routeId": "100100363",
      "seq": 29,
      "stationId": "112000199",
      "arsId": "13282",
      "name": "서대문독립공원.삼호아파트",
      "lat": 37.5714897037,
      "lng": 126.9594106078,
      "direction": "파크빌아파트"
    },
    {
      "routeId": "100100363",
      "seq": 30,
      "stationId": "100000072",
      "arsId": "01167",
      "name": "독립문역.서대문형무소역사관",
      "lat": 37.573395,
      "lng": 126.959322,
      "direction": "파크빌아파트"
    },
    {
      "routeId": "100100363",
      "seq": 31,
      "stationId": "112000313",
      "arsId": "13326",
      "name": "독립공원사거리",
      "lat": 37.5764875221,
      "lng": 126.9552249123,
      "direction": "파크빌아파트"
    },
    {
      "routeId": "100100363",
      "seq": 32,
      "stationId": "112000427",
      "arsId": "13336",
      "name": "국립대한민국임시정부기념관",
      "lat": 37.57583,
      "lng": 126.953572,
      "direction": "파크빌아파트"
    },
    {
      "routeId": "100100363",
      "seq": 33,
      "stationId": "112000428",
      "arsId": "13337",
      "name": "독립문파크빌.한성과학고",
      "lat": 37.5745776862,
      "lng": 126.9518579342,
      "direction": "파크빌아파트"
    },
    {
      "routeId": "100100363",
      "seq": 34,
      "stationId": "112000314",
      "arsId": "13325",
      "name": "독립공원사거리",
      "lat": 37.5763938404,
      "lng": 126.955308749,
      "direction": "은평공영차고지"
    },
    {
      "routeId": "100100363",
      "seq": 35,
      "stationId": "112000167",
      "arsId": "13250",
      "name": "독립문역·서대문형무소역사관",
      "lat": 37.5754192746,
      "lng": 126.9564326063,
      "direction": "은평공영차고지"
    },
    {
      "routeId": "100100363",
      "seq": 36,
      "stationId": "112000438",
      "arsId": " ",
      "name": "독립문(가상)",
      "lat": 37.572263,
      "lng": 126.960083,
      "direction": "은평공영차고지"
    },
    {
      "routeId": "100100363",
      "seq": 37,
      "stationId": "112000187",
      "arsId": "13270",
      "name": "서대문독립공원·극동아파트",
      "lat": 37.5718528892,
      "lng": 126.9593190984,
      "direction": "은평공영차고지"
    },
    {
      "routeId": "100100363",
      "seq": 38,
      "stationId": "112000038",
      "arsId": "13121",
      "name": "이대부고",
      "lat": 37.5663177634,
      "lng": 126.9464759832,
      "direction": "은평공영차고지"
    },
    {
      "routeId": "100100363",
      "seq": 39,
      "stationId": "112000017",
      "arsId": "13017",
      "name": "이대후문",
      "lat": 37.5630635031,
      "lng": 126.943648393,
      "direction": "은평공영차고지"
    },
    {
      "routeId": "100100363",
      "seq": 40,
      "stationId": "112000015",
      "arsId": "13015",
      "name": "세브란스병원앞",
      "lat": 37.5601326008,
      "lng": 126.9389236898,
      "direction": "은평공영차고지"
    },
    {
      "routeId": "100100363",
      "seq": 41,
      "stationId": "112000031",
      "arsId": "13114",
      "name": "연세대학교앞",
      "lat": 37.55982,
      "lng": 126.935305,
      "direction": "은평공영차고지"
    },
    {
      "routeId": "100100363",
      "seq": 42,
      "stationId": "112000063",
      "arsId": "13146",
      "name": "연세로.스타광장",
      "lat": 37.55641,
      "lng": 126.936767,
      "direction": "은평공영차고지"
    },
    {
      "routeId": "100100363",
      "seq": 43,
      "stationId": "113000416",
      "arsId": "13021",
      "name": "신촌오거리.현대백화점",
      "lat": 37.5559833987,
      "lng": 126.9345037666,
      "direction": "은평공영차고지"
    },
    {
      "routeId": "100100363",
      "seq": 44,
      "stationId": "113000415",
      "arsId": "13019",
      "name": "동교동삼거리",
      "lat": 37.5577646946,
      "lng": 126.92951964,
      "direction": "은평공영차고지"
    },
    {
      "routeId": "100100363",
      "seq": 45,
      "stationId": "113000133",
      "arsId": "14224",
      "name": "홍대입구역1번출구",
      "lat": 37.5565612263,
      "lng": 126.9230438058,
      "direction": "은평공영차고지"
    },
    {
      "routeId": "100100363",
      "seq": 46,
      "stationId": "113000091",
      "arsId": "14182",
      "name": "동교로사거리",
      "lat": 37.5558462446,
      "lng": 126.9209476216,
      "direction": "은평공영차고지"
    },
    {
      "routeId": "100100363",
      "seq": 47,
      "stationId": "113000101",
      "arsId": "14192",
      "name": "아만티호텔서울",
      "lat": 37.5572277306,
      "lng": 126.9193196292,
      "direction": "은평공영차고지"
    },
    {
      "routeId": "100100363",
      "seq": 48,
      "stationId": "113000100",
      "arsId": "14191",
      "name": "경성중고.홍대부속여중고입구",
      "lat": 37.5594093604,
      "lng": 126.9172809899,
      "direction": "은평공영차고지"
    },
    {
      "routeId": "100100363",
      "seq": 49,
      "stationId": "113000096",
      "arsId": "14187",
      "name": "성미약수터",
      "lat": 37.5617966139,
      "lng": 126.9151050102,
      "direction": "은평공영차고지"
    },
    {
      "routeId": "100100363",
      "seq": 50,
      "stationId": "113000095",
      "arsId": "14186",
      "name": "성산2교",
      "lat": 37.5638632409,
      "lng": 126.9132054677,
      "direction": "은평공영차고지"
    },
    {
      "routeId": "100100363",
      "seq": 51,
      "stationId": "113000439",
      "arsId": "14353",
      "name": "월드컵아이파크",
      "lat": 37.5664713538,
      "lng": 126.9136846815,
      "direction": "은평공영차고지"
    },
    {
      "routeId": "100100363",
      "seq": 52,
      "stationId": "113000495",
      "arsId": "14342",
      "name": "가좌역1번출구",
      "lat": 37.568313,
      "lng": 126.914942,
      "direction": "은평공영차고지"
    },
    {
      "routeId": "100100363",
      "seq": 53,
      "stationId": "113000442",
      "arsId": "14350",
      "name": "가좌행복주택.건영월드컵아파트",
      "lat": 37.569452,
      "lng": 126.912103,
      "direction": "은평공영차고지"
    },
    {
      "routeId": "100100363",
      "seq": 54,
      "stationId": "113000444",
      "arsId": "14348",
      "name": "중동현대아파트",
      "lat": 37.5716856118,
      "lng": 126.9072675947,
      "direction": "은평공영차고지"
    },
    {
      "routeId": "100100363",
      "seq": 55,
      "stationId": "113000446",
      "arsId": "14346",
      "name": "청구아파트.참누리아파트",
      "lat": 37.5742321541,
      "lng": 126.9028581629,
      "direction": "은평공영차고지"
    },
    {
      "routeId": "100100363",
      "seq": 56,
      "stationId": "113000448",
      "arsId": "14344",
      "name": "디지털미디어시티역3번출구A",
      "lat": 37.5755263424,
      "lng": 126.9007797653,
      "direction": "은평공영차고지"
    },
    {
      "routeId": "100100363",
      "seq": 57,
      "stationId": "113000451",
      "arsId": "14358",
      "name": "공항철도디지털미디어시티역",
      "lat": 37.576698,
      "lng": 126.899007,
      "direction": "은평공영차고지"
    },
    {
      "routeId": "100100363",
      "seq": 58,
      "stationId": "113000453",
      "arsId": "14356",
      "name": "SBS.YTN",
      "lat": 37.579827,
      "lng": 126.894375,
      "direction": "은평공영차고지"
    },
    {
      "routeId": "100100363",
      "seq": 59,
      "stationId": "111001115",
      "arsId": "14362",
      "name": "MBC",
      "lat": 37.582084,
      "lng": 126.89073,
      "direction": "은평공영차고지"
    },
    {
      "routeId": "100100363",
      "seq": 60,
      "stationId": "113000455",
      "arsId": "14354",
      "name": "DMC첨단산업센터",
      "lat": 37.58406,
      "lng": 126.886547,
      "direction": "은평공영차고지"
    },
    {
      "routeId": "100100363",
      "seq": 61,
      "stationId": "113000436",
      "arsId": "14337",
      "name": "하늘초등학교",
      "lat": 37.585322,
      "lng": 126.879658,
      "direction": "은평공영차고지"
    },
    {
      "routeId": "100100363",
      "seq": 62,
      "stationId": "113000435",
      "arsId": "14338",
      "name": "월드컵파크10단지",
      "lat": 37.586203,
      "lng": 126.88135,
      "direction": "은평공영차고지"
    },
    {
      "routeId": "100100363",
      "seq": 63,
      "stationId": "113000434",
      "arsId": "14341",
      "name": "수색교",
      "lat": 37.5870817539,
      "lng": 126.8839598515,
      "direction": "은평공영차고지"
    },
    {
      "routeId": "100100363",
      "seq": 64,
      "stationId": "111000224",
      "arsId": "12314",
      "name": "덕은교.은평차고지앞",
      "lat": 37.5885944751,
      "lng": 126.8856592313,
      "direction": "은평공영차고지"
    }
  ]
}