{
  "routeId": "100100030",
  "collectedAt": "2026-05-15T05:26:56.632Z",
  "source": "seoul_api",
  "stops": [
    {
      "routeId": "100100030",
      "seq": 1,
      "stationId": "108000014",
      "arsId": "09102",
      "name": "우이동도선사입구.북한산우이역",
      "lat": 37.662647,
      "lng": 127.012719,
      "direction": "중앙대"
    },
    {
      "routeId": "100100030",
      "seq": 2,
      "stationId": "108000015",
      "arsId": "09103",
      "name": "우이동성원아파트",
      "lat": 37.660809,
      "lng": 127.013424,
      "direction": "중앙대"
    },
    {
      "routeId": "100100030",
      "seq": 3,
      "stationId": "108000017",
      "arsId": "09105",
      "name": "진성빌라사거리",
      "lat": 37.659077,
      "lng": 127.013785,
      "direction": "중앙대"
    },
    {
      "routeId": "100100030",
      "seq": 4,
      "stationId": "108000018",
      "arsId": "09106",
      "name": "서라벌중학교.우이동대우아파트",
      "lat": 37.6551,
      "lng": 127.012933,
      "direction": "중앙대"
    },
    {
      "routeId": "100100030",
      "seq": 5,
      "stationId": "108000019",
      "arsId": "09107",
      "name": "덕성여대.솔밭근린공원",
      "lat": 37.6513809333,
      "lng": 127.0126091716,
      "direction": "중앙대"
    },
    {
      "routeId": "100100030",
      "seq": 6,
      "stationId": "108000020",
      "arsId": "09108",
      "name": "4.19민주묘지역",
      "lat": 37.6491109904,
      "lng": 127.0137114618,
      "direction": "중앙대"
    },
    {
      "routeId": "100100030",
      "seq": 7,
      "stationId": "108000022",
      "arsId": "09110",
      "name": "국립4.19민주묘지입구사거리",
      "lat": 37.648147,
      "lng": 127.013448,
      "direction": "중앙대"
    },
    {
      "routeId": "100100030",
      "seq": 8,
      "stationId": "108000024",
      "arsId": "09112",
      "name": "국립419묘지삼거리.윤극영가옥",
      "lat": 37.64653,
      "lng": 127.010438,
      "direction": "중앙대"
    },
    {
      "routeId": "100100030",
      "seq": 9,
      "stationId": "108000026",
      "arsId": "09114",
      "name": "인수동백운교회입구",
      "lat": 37.644587883,
      "lng": 127.0106566466,
      "direction": "중앙대"
    },
    {
      "routeId": "100100030",
      "seq": 10,
      "stationId": "108000028",
      "arsId": "09116",
      "name": "인수중학교.극동아파트",
      "lat": 37.6425036675,
      "lng": 127.010828591,
      "direction": "중앙대"
    },
    {
      "routeId": "100100030",
      "seq": 11,
      "stationId": "108000030",
      "arsId": "09118",
      "name": "서울영어마을수유캠프.국립재활원입구",
      "lat": 37.6400512667,
      "lng": 127.0119023303,
      "direction": "중앙대"
    },
    {
      "routeId": "100100030",
      "seq": 12,
      "stationId": "108000042",
      "arsId": "09130",
      "name": "우이초등학교후문",
      "lat": 37.6383971504,
      "lng": 127.0136267756,
      "direction": "중앙대"
    },
    {
      "routeId": "100100030",
      "seq": 13,
      "stationId": "108000044",
      "arsId": "09132",
      "name": "인수동청수탕입구",
      "lat": 37.637168,
      "lng": 127.012868,
      "direction": "중앙대"
    },
    {
      "routeId": "100100030",
      "seq": 14,
      "stationId": "108000175",
      "arsId": "09263",
      "name": "한신대학교",
      "lat": 37.635375886,
      "lng": 127.0130710226,
      "direction": "중앙대"
    },
    {
      "routeId": "100100030",
      "seq": 15,
      "stationId": "108000049",
      "arsId": "09137",
      "name": "화계사입구.한신대학교대학원",
      "lat": 37.6337259037,
      "lng": 127.0139522376,
      "direction": "중앙대"
    },
    {
      "routeId": "100100030",
      "seq": 16,
      "stationId": "108000051",
      "arsId": "09139",
      "name": "수유동삼양탕앞",
      "lat": 37.6338204001,
      "lng": 127.0149108072,
      "direction": "중앙대"
    },
    {
      "routeId": "100100030",
      "seq": 17,
      "stationId": "108000053",
      "arsId": "09141",
      "name": "화계사입구사거리",
      "lat": 37.6339931438,
      "lng": 127.0168721385,
      "direction": "중앙대"
    },
    {
      "routeId": "100100030",
      "seq": 18,
      "stationId": "108000055",
      "arsId": "09143",
      "name": "강북노인종합복지관",
      "lat": 37.634218,
      "lng": 127.01914,
      "direction": "중앙대"
    },
    {
      "routeId": "100100030",
      "seq": 19,
      "stationId": "108000057",
      "arsId": "09145",
      "name": "신일병원",
      "lat": 37.6343871166,
      "lng": 127.0212163361,
      "direction": "중앙대"
    },
    {
      "routeId": "100100030",
      "seq": 20,
      "stationId": "108000005",
      "arsId": "09005",
      "name": "수유시장.성신여대미아캠퍼스앞",
      "lat": 37.6312262117,
      "lng": 127.0241719892,
      "direction": "중앙대"
    },
    {
      "routeId": "100100030",
      "seq": 21,
      "stationId": "108000007",
      "arsId": "09007",
      "name": "미아역.신일중고",
      "lat": 37.6248696784,
      "lng": 127.0266493048,
      "direction": "중앙대"
    },
    {
      "routeId": "100100030",
      "seq": 22,
      "stationId": "108000009",
      "arsId": "09009",
      "name": "도봉세무서.성암국제무역고",
      "lat": 37.6197140913,
      "lng": 127.028719403,
      "direction": "중앙대"
    },
    {
      "routeId": "100100030",
      "seq": 23,
      "stationId": "108000011",
      "arsId": "09011",
      "name": "미아사거리역",
      "lat": 37.6137621245,
      "lng": 127.0299325391,
      "direction": "중앙대"
    },
    {
      "routeId": "100100030",
      "seq": 24,
      "stationId": "107000001",
      "arsId": "08001",
      "name": "길음2동주민센터",
      "lat": 37.6069061871,
      "lng": 127.028209324,
      "direction": "중앙대"
    },
    {
      "routeId": "100100030",
      "seq": 25,
      "stationId": "107000003",
      "arsId": "08003",
      "name": "길음뉴타운",
      "lat": 37.6037502378,
      "lng": 127.0242688702,
      "direction": "중앙대"
    },
    {
      "routeId": "100100030",
      "seq": 26,
      "stationId": "107000005",
      "arsId": "08005",
      "name": "미아리고개.미아리예술극장",
      "lat": 37.5988112954,
      "lng": 127.0217090638,
      "direction": "중앙대"
    },
    {
      "routeId": "100100030",
      "seq": 27,
      "stationId": "107000007",
      "arsId": "08007",
      "name": "돈암사거리.성신여대입구",
      "lat": 37.5937432794,
      "lng": 127.0181313708,
      "direction": "중앙대"
    },
    {
      "routeId": "100100030",
      "seq": 28,
      "stationId": "107000009",
      "arsId": "08009",
      "name": "삼선교.한성대학교",
      "lat": 37.5899648397,
      "lng": 127.0093351178,
      "direction": "중앙대"
    },
    {
      "routeId": "100100030",
      "seq": 29,
      "stationId": "100000005",
      "arsId": "01005",
      "name": "혜화동로터리.여운형활동터",
      "lat": 37.586243,
      "lng": 127.001744,
      "direction": "중앙대"
    },
    {
      "routeId": "100100030",
      "seq": 30,
      "stationId": "100000003",
      "arsId": "01003",
      "name": "명륜3가.성대입구",
      "lat": 37.582581,
      "lng": 126.998251,
      "direction": "중앙대"
    },
    {
      "routeId": "100100030",
      "seq": 31,
      "stationId": "100000002",
      "arsId": "01002",
      "name": "창경궁.서울대학교병원",
      "lat": 37.579433,
      "lng": 126.996522,
      "direction": "중앙대"
    },
    {
      "routeId": "100100030",
      "seq": 32,
      "stationId": "100000076",
      "arsId": "01172",
      "name": "창덕궁.우리소리박물관",
      "lat": 37.5775405746,
      "lng": 126.9885394479,
      "direction": "중앙대"
    },
    {
      "routeId": "100100030",
      "seq": 33,
      "stationId": "100000369",
      "arsId": "01295",
      "name": "안국역.서울공예박물관",
      "lat": 37.576413,
      "lng": 126.984888,
      "direction": "중앙대"
    },
    {
      "routeId": "100100030",
      "seq": 34,
      "stationId": "100000106",
      "arsId": "01202",
      "name": "조계사.종로경찰서",
      "lat": 37.5724858087,
      "lng": 126.9828258888,
      "direction": "중앙대"
    },
    {
      "routeId": "100100030",
      "seq": 35,
      "stationId": "101000141",
      "arsId": "02246",
      "name": "을지로입구역.광교",
      "lat": 37.5676492567,
      "lng": 126.9825656304,
      "direction": "중앙대"
    },
    {
      "routeId": "100100030",
      "seq": 36,
      "stationId": "101000041",
      "arsId": "02140",
      "name": "롯데백화점",
      "lat": 37.56451,
      "lng": 126.982205,
      "direction": "중앙대"
    },
    {
      "routeId": "100100030",
      "seq": 37,
      "stationId": "101000032",
      "arsId": "02127",
      "name": "북창동.남대문시장",
      "lat": 37.561273,
      "lng": 126.978555,
      "direction": "중앙대"
    },
    {
      "routeId": "100100030",
      "seq": 38,
      "stationId": "101000329",
      "arsId": " ",
      "name": "숭례문(가상)",
      "lat": 37.5597967723,
      "lng": 126.9743556496,
      "direction": "중앙대"
    },
    {
      "routeId": "100100030",
      "seq": 39,
      "stationId": "101000008",
      "arsId": "02008",
      "name": "숭례문",
      "lat": 37.5586388574,
      "lng": 126.9737783904,
      "direction": "중앙대"
    },
    {
      "routeId": "100100030",
      "seq": 40,
      "stationId": "101000004",
      "arsId": "02004",
      "name": "서울역버스환승센터",
      "lat": 37.5554029828,
      "lng": 126.9725924801,
      "direction": "중앙대"
    },
    {
      "routeId": "100100030",
      "seq": 41,
      "stationId": "102000012",
      "arsId": "03012",
      "name": "갈월동",
      "lat": 37.5495337218,
      "lng": 126.9717081909,
      "direction": "중앙대"
    },
    {
      "routeId": "100100030",
      "seq": 42,
      "stationId": "102000010",
      "arsId": "03010",
      "name": "숙대입구역",
      "lat": 37.5437560216,
      "lng": 126.9722320769,
      "direction": "중앙대"
    },
    {
      "routeId": "100100030",
      "seq": 43,
      "stationId": "102000008",
      "arsId": "03008",
      "name": "삼각지역.전쟁기념관",
      "lat": 37.5359845015,
      "lng": 126.9741608708,
      "direction": "중앙대"
    },
    {
      "routeId": "100100030",
      "seq": 44,
      "stationId": "102000006",
      "arsId": "03006",
      "name": "용산우체국",
      "lat": 37.5320503694,
      "lng": 126.9705640624,
      "direction": "중앙대"
    },
    {
      "routeId": "100100030",
      "seq": 45,
      "stationId": "102000004",
      "arsId": "03004",
      "name": "신용산역",
      "lat": 37.527920489,
      "lng": 126.9666192358,
      "direction": "중앙대"
    },
    {
      "routeId": "100100030",
      "seq": 46,
      "stationId": "102000002",
      "arsId": "03002",
      "name": "한강대교북단.LG유플러스",
      "lat": 37.5243060629,
      "lng": 126.9631848403,
      "direction": "중앙대"
    },
    {
      "routeId": "100100030",
      "seq": 47,
      "stationId": "102000247",
      "arsId": "03340",
      "name": "노들섬",
      "lat": 37.517515,
      "lng": 126.95861,
      "direction": "중앙대"
    },
    {
      "routeId": "100100030",
      "seq": 48,
      "stationId": "119000290",
      "arsId": "20247",
      "name": "노들역앞",
      "lat": 37.513521,
      "lng": 126.952211,
      "direction": "중앙대"
    },
    {
      "routeId": "100100030",
      "seq": 49,
      "stationId": "119000030",
      "arsId": "20123",
      "name": "흑석동효사정앞",
      "lat": 37.511554,
      "lng": 126.960745,
      "direction": "중앙대"
    },
    {
      "routeId": "100100030",
      "seq": 50,
      "stationId": "119000032",
      "arsId": "20125",
      "name": "흑석역.흑석동빗물펌프장",
      "lat": 37.508297,
      "lng": 126.963213,
      "direction": "중앙대"
    },
    {
      "routeId": "100100030",
      "seq": 51,
      "stationId": "119000101",
      "arsId": "20194",
      "name": "중앙대학교",
      "lat": 37.508167,
      "lng": 126.961323,
      "direction": "중앙대"
    },
    {
      "routeId": "100100030",
      "seq": 52,
      "stationId": "119000031",
      "arsId": "20124",
      "name": "흑석동효사정앞",
      "lat": 37.5115728985,
      "lng": 126.9612375315,
      "direction": "우이동"
    },
    {
      "routeId": "100100030",
      "seq": 53,
      "stationId": "102000248",
      "arsId": "03341",
      "name": "노들섬",
      "lat": 37.5173638437,
      "lng": 126.959037665,
      "direction": "우이동"
    },
    {
      "routeId": "100100030",
      "seq": 54,
      "stationId": "102000001",
      "arsId": "03001",
      "name": "한강대교북단.LG유플러스",
      "lat": 37.524049,
      "lng": 126.963121,
      "direction": "우이동"
    },
    {
      "routeId": "100100030",
      "seq": 55,
      "stationId": "102000003",
      "arsId": "03003",
      "name": "신용산역",
      "lat": 37.527293,
      "lng": 126.966207,
      "direction": "우이동"
    },
    {
      "routeId": "100100030",
      "seq": 56,
      "stationId": "102000005",
      "arsId": "03005",
      "name": "용산우체국",
      "lat": 37.5314970129,
      "lng": 126.9702350163,
      "direction": "우이동"
    },
    {
      "routeId": "100100030",
      "seq": 57,
      "stationId": "102000007",
      "arsId": "03007",
      "name": "삼각지역.전쟁기념관",
      "lat": 37.5351801399,
      "lng": 126.9736858311,
      "direction": "우이동"
    },
    {
      "routeId": "100100030",
      "seq": 58,
      "stationId": "102000009",
      "arsId": "03009",
      "name": "숙대입구역",
      "lat": 37.543295633,
      "lng": 126.9725377982,
      "direction": "우이동"
    },
    {
      "routeId": "100100030",
      "seq": 59,
      "stationId": "102000011",
      "arsId": "03011",
      "name": "갈월동",
      "lat": 37.5509755993,
      "lng": 126.9722373211,
      "direction": "우이동"
    },
    {
      "routeId": "100100030",
      "seq": 60,
      "stationId": "101000007",
      "arsId": "02007",
      "name": "서울역버스환승센터.강우규의거터",
      "lat": 37.555411,
      "lng": 126.972926,
      "direction": "우이동"
    },
    {
      "routeId": "100100030",
      "seq": 61,
      "stationId": "101000114",
      "arsId": "02219",
      "name": "남대문시장앞.이회영활동터",
      "lat": 37.5609394169,
      "lng": 126.978580386,
      "direction": "우이동"
    },
    {
      "routeId": "100100030",
      "seq": 62,
      "stationId": "101000043",
      "arsId": "02142",
      "name": "명동.롯데영플라자",
      "lat": 37.562885,
      "lng": 126.982008,
      "direction": "우이동"
    },
    {
      "routeId": "100100030",
      "seq": 63,
      "stationId": "101000040",
      "arsId": "02139",
      "name": "우리은행종로지점",
      "lat": 37.5678390393,
      "lng": 126.9828658628,
      "direction": "우이동"
    },
    {
      "routeId": "100100030",
      "seq": 64,
      "stationId": "100000105",
      "arsId": "01201",
      "name": "조계사.종로경찰서",
      "lat": 37.5725223095,
      "lng": 126.9831555803,
      "direction": "우이동"
    },
    {
      "routeId": "100100030",
      "seq": 65,
      "stationId": "100000104",
      "arsId": "01200",
      "name": "안국역6번출구.인사동문화의거리",
      "lat": 37.575798979,
      "lng": 126.9841344381,
      "direction": "우이동"
    },
    {
      "routeId": "100100030",
      "seq": 66,
      "stationId": "100000103",
      "arsId": "01199",
      "name": "창덕궁.우리소리박물관",
      "lat": 37.577272,
      "lng": 126.988954,
      "direction": "우이동"
    },
    {
      "routeId": "100100030",
      "seq": 67,
      "stationId": "100000128",
      "arsId": "01224",
      "name": "창경궁.서울대학교병원",
      "lat": 37.5788279947,
      "lng": 126.9968717143,
      "direction": "우이동"
    },
    {
      "routeId": "100100030",
      "seq": 68,
      "stationId": "100000131",
      "arsId": "01227",
      "name": "명륜동2가.성균관대입구",
      "lat": 37.5834170764,
      "lng": 126.9993412723,
      "direction": "우이동"
    },
    {
      "routeId": "100100030",
      "seq": 69,
      "stationId": "107000010",
      "arsId": "08010",
      "name": "삼선교.한성대학교.조소앙활동터",
      "lat": 37.5893632989,
      "lng": 127.0082049442,
      "direction": "우이동"
    },
    {
      "routeId": "100100030",
      "seq": 70,
      "stationId": "107000008",
      "arsId": "08008",
      "name": "돈암사거리.성신여대입구",
      "lat": 37.593251,
      "lng": 127.017684,
      "direction": "우이동"
    },
    {
      "routeId": "100100030",
      "seq": 71,
      "stationId": "107000006",
      "arsId": "08006",
      "name": "미아리고개.미아리예술극장",
      "lat": 37.5979210002,
      "lng": 127.0218209221,
      "direction": "우이동"
    },
    {
      "routeId": "100100030",
      "seq": 72,
      "stationId": "107000004",
      "arsId": "08004",
      "name": "길음뉴타운",
      "lat": 37.603112,
      "lng": 127.023443,
      "direction": "우이동"
    },
    {
      "routeId": "100100030",
      "seq": 73,
      "stationId": "107000002",
      "arsId": "08002",
      "name": "길음2동주민센터",
      "lat": 37.60611,
      "lng": 127.02747,
      "direction": "우이동"
    },
    {
      "routeId": "100100030",
      "seq": 74,
      "stationId": "108000012",
      "arsId": "09012",
      "name": "미아사거리역",
      "lat": 37.6128943078,
      "lng": 127.0302131064,
      "direction": "우이동"
    },
    {
      "routeId": "100100030",
      "seq": 75,
      "stationId": "108000010",
      "arsId": "09010",
      "name": "도봉세무서.성암국제무역고",
      "lat": 37.6188372063,
      "lng": 127.0292480892,
      "direction": "우이동"
    },
    {
      "routeId": "100100030",
      "seq": 76,
      "stationId": "108000008",
      "arsId": "09008",
      "name": "미아역.신일중고",
      "lat": 37.6243092426,
      "lng": 127.0270667409,
      "direction": "우이동"
    },
    {
      "routeId": "100100030",
      "seq": 77,
      "stationId": "108000006",
      "arsId": "09006",
      "name": "수유시장.성신여대미아캠퍼스앞",
      "lat": 37.6303451749,
      "lng": 127.0246442208,
      "direction": "우이동"
    },
    {
      "routeId": "100100030",
      "seq": 78,
      "stationId": "108000056",
      "arsId": "09144",
      "name": "신일병원",
      "lat": 37.634723,
      "lng": 127.022267,
      "direction": "우이동"
    },
    {
      "routeId": "100100030",
      "seq": 79,
      "stationId": "108000054",
      "arsId": "09142",
      "name": "강북노인종합복지관",
      "lat": 37.6344334502,
      "lng": 127.0189955726,
      "direction": "우이동"
    },
    {
      "routeId": "100100030",
      "seq": 80,
      "stationId": "108000052",
      "arsId": "09140",
      "name": "화계사입구사거리",
      "lat": 37.6342866157,
      "lng": 127.016899104,
      "direction": "우이동"
    },
    {
      "routeId": "100100030",
      "seq": 81,
      "stationId": "108000050",
      "arsId": "09138",
      "name": "수유동삼양탕앞",
      "lat": 37.63408,
      "lng": 127.015551,
      "direction": "우이동"
    },
    {
      "routeId": "100100030",
      "seq": 82,
      "stationId": "108000048",
      "arsId": "09136",
      "name": "화계사입구.한신대학교대학원",
      "lat": 37.633975,
      "lng": 127.013957,
      "direction": "우이동"
    },
    {
      "routeId": "100100030",
      "seq": 83,
      "stationId": "108000045",
      "arsId": "09133",
      "name": "인수동청수탕입구",
      "lat": 37.6365184578,
      "lng": 127.0130723558,
      "direction": "우이동"
    },
    {
      "routeId": "100100030",
      "seq": 84,
      "stationId": "108000043",
      "arsId": "09131",
      "name": "우이초등학교후문",
      "lat": 37.6384286647,
      "lng": 127.0138284749,
      "direction": "우이동"
    },
    {
      "routeId": "100100030",
      "seq": 85,
      "stationId": "108000031",
      "arsId": "09119",
      "name": "서울영어마을수유캠프.국립재활원입구",
      "lat": 37.6403058,
      "lng": 127.011851385,
      "direction": "우이동"
    },
    {
      "routeId": "100100030",
      "seq": 86,
      "stationId": "108000029",
      "arsId": "09117",
      "name": "인수중학교.극동아파트",
      "lat": 37.6423108154,
      "lng": 127.0110529305,
      "direction": "우이동"
    },
    {
      "routeId": "100100030",
      "seq": 87,
      "stationId": "108000027",
      "arsId": "09115",
      "name": "인수동백운교회입구",
      "lat": 37.644309423,
      "lng": 127.0109421731,
      "direction": "우이동"
    },
    {
      "routeId": "100100030",
      "seq": 88,
      "stationId": "108000025",
      "arsId": "09113",
      "name": "국립419묘지삼거리.윤극영가옥",
      "lat": 37.6463224596,
      "lng": 127.0106931578,
      "direction": "우이동"
    },
    {
      "routeId": "100100030",
      "seq": 89,
      "stationId": "108000190",
      "arsId": "09278",
      "name": "우이동주민센터입구",
      "lat": 37.6476640054,
      "lng": 127.0123580949,
      "direction": "우이동"
    },
    {
      "routeId": "100100030",
      "seq": 90,
      "stationId": "108000021",
      "arsId": "09109",
      "name": "4.19민주묘지역",
      "lat": 37.649113,
      "lng": 127.014019,
      "direction": "우이동"
    },
    {
      "routeId": "100100030",
      "seq": 91,
      "stationId": "109000135",
      "arsId": "10221",
      "name": "덕성여대입구",
      "lat": 37.65106,
      "lng": 127.013138,
      "direction": "우이동"
    },
    {
      "routeId": "100100030",
      "seq": 92,
      "stationId": "109000134",
      "arsId": "10219",
      "name": "서라벌중학교.우이동대우아파트",
      "lat": 37.655025,
      "lng": 127.013223,
      "direction": "우이동"
    },
    {
      "routeId": "100100030",
      "seq": 93,
      "stationId": "109000133",
      "arsId": "10218",
      "name": "북서울교회",
      "lat": 37.6572562221,
      "lng": 127.0136533178,
      "direction": "우이동"
    },
    {
      "routeId": "100100030",
      "seq": 94,
      "stationId": "109000236",
      "arsId": "10325",
      "name": "강북씨앤지",
      "lat": 37.658907,
      "lng": 127.013997,
      "direction": "우이동"
    },
    {
      "routeId": "100100030",
      "seq": 95,
      "stationId": "108000016",
      "arsId": "09104",
      "name": "우이동성원아파트",
      "lat": 37.662045,
      "lng": 127.013357,
      "direction": "우이동"
    }
  ]
}