{
  "routeId": "100100116",
  "collectedAt": "2026-05-15T23:22:21.800Z",
  "source": "seoul_api",
  "stops": [
    {
      "routeId": "100100116",
      "seq": 1,
      "stationId": "111000060",
      "arsId": "12148",
      "name": "선진운수종점",
      "lat": 37.613895,
      "lng": 126.910862,
      "direction": "교대역"
    },
    {
      "routeId": "100100116",
      "seq": 2,
      "stationId": "111000127",
      "arsId": "12215",
      "name": "구산동주민센터",
      "lat": 37.6122095685,
      "lng": 126.9112924774,
      "direction": "교대역"
    },
    {
      "routeId": "100100116",
      "seq": 3,
      "stationId": "111000128",
      "arsId": "12216",
      "name": "구산중학교.구산교회",
      "lat": 37.6088023972,
      "lng": 126.9108335829,
      "direction": "교대역"
    },
    {
      "routeId": "100100116",
      "seq": 4,
      "stationId": "111000129",
      "arsId": "12217",
      "name": "시립서북병원세현교회앞",
      "lat": 37.6060168573,
      "lng": 126.9104597465,
      "direction": "교대역"
    },
    {
      "routeId": "100100116",
      "seq": 5,
      "stationId": "111000130",
      "arsId": "12218",
      "name": "서울기독대학교입구",
      "lat": 37.6020320757,
      "lng": 126.9102266857,
      "direction": "교대역"
    },
    {
      "routeId": "100100116",
      "seq": 6,
      "stationId": "111000131",
      "arsId": "12219",
      "name": "우남교통",
      "lat": 37.5997666658,
      "lng": 126.9101252157,
      "direction": "교대역"
    },
    {
      "routeId": "100100116",
      "seq": 7,
      "stationId": "111000278",
      "arsId": "12368",
      "name": "신사동고개",
      "lat": 37.5977669942,
      "lng": 126.9099169775,
      "direction": "교대역"
    },
    {
      "routeId": "100100116",
      "seq": 8,
      "stationId": "111000072",
      "arsId": "12160",
      "name": "신사동고개사거리",
      "lat": 37.5956071263,
      "lng": 126.9099682771,
      "direction": "교대역"
    },
    {
      "routeId": "100100116",
      "seq": 9,
      "stationId": "111000073",
      "arsId": "12161",
      "name": "신사초등학교",
      "lat": 37.5933583703,
      "lng": 126.9128484808,
      "direction": "교대역"
    },
    {
      "routeId": "100100116",
      "seq": 10,
      "stationId": "111000074",
      "arsId": "12162",
      "name": "응암오거리",
      "lat": 37.5907322847,
      "lng": 126.916146787,
      "direction": "교대역"
    },
    {
      "routeId": "100100116",
      "seq": 11,
      "stationId": "111000077",
      "arsId": "12165",
      "name": "대림시장",
      "lat": 37.5878268986,
      "lng": 126.9165435736,
      "direction": "교대역"
    },
    {
      "routeId": "100100116",
      "seq": 12,
      "stationId": "112000096",
      "arsId": "13179",
      "name": "동도하이츠아파트",
      "lat": 37.5849012516,
      "lng": 126.9147685281,
      "direction": "교대역"
    },
    {
      "routeId": "100100116",
      "seq": 13,
      "stationId": "112000094",
      "arsId": "13177",
      "name": "북가좌2동주민센터",
      "lat": 37.582863608,
      "lng": 126.9134019708,
      "direction": "교대역"
    },
    {
      "routeId": "100100116",
      "seq": 14,
      "stationId": "112000092",
      "arsId": "13175",
      "name": "북가좌오거리",
      "lat": 37.5802996548,
      "lng": 126.9114608746,
      "direction": "교대역"
    },
    {
      "routeId": "100100116",
      "seq": 15,
      "stationId": "112000100",
      "arsId": "13183",
      "name": "DMC래미안e편한세상2.4단지",
      "lat": 37.576740896,
      "lng": 126.9109918398,
      "direction": "교대역"
    },
    {
      "routeId": "100100116",
      "seq": 16,
      "stationId": "112000102",
      "arsId": "13185",
      "name": "북가좌삼호.DMC아이파크아파트",
      "lat": 37.5752684365,
      "lng": 126.9133099754,
      "direction": "교대역"
    },
    {
      "routeId": "100100116",
      "seq": 17,
      "stationId": "112000106",
      "arsId": "13189",
      "name": "DMC파크뷰자이.별동상가",
      "lat": 37.575188,
      "lng": 126.916089,
      "direction": "교대역"
    },
    {
      "routeId": "100100116",
      "seq": 18,
      "stationId": "112000097",
      "arsId": "13180",
      "name": "DMC파크뷰자이",
      "lat": 37.5738624722,
      "lng": 126.9162367644,
      "direction": "교대역"
    },
    {
      "routeId": "100100116",
      "seq": 19,
      "stationId": "112000099",
      "arsId": "13182",
      "name": "모래내삼거리",
      "lat": 37.570778,
      "lng": 126.913295,
      "direction": "교대역"
    },
    {
      "routeId": "100100116",
      "seq": 20,
      "stationId": "112000005",
      "arsId": "13005",
      "name": "모래내시장.가좌역",
      "lat": 37.5690774104,
      "lng": 126.9150627853,
      "direction": "교대역"
    },
    {
      "routeId": "100100116",
      "seq": 21,
      "stationId": "112000007",
      "arsId": "13007",
      "name": "사천교",
      "lat": 37.567558,
      "lng": 126.918153,
      "direction": "교대역"
    },
    {
      "routeId": "100100116",
      "seq": 22,
      "stationId": "112000008",
      "arsId": "13008",
      "name": "연희104고지앞.궁동근린공원",
      "lat": 37.56628429,
      "lng": 126.9250825384,
      "direction": "교대역"
    },
    {
      "routeId": "100100116",
      "seq": 23,
      "stationId": "112000010",
      "arsId": "13010",
      "name": "서대문우체국",
      "lat": 37.561955,
      "lng": 126.931992,
      "direction": "교대역"
    },
    {
      "routeId": "100100116",
      "seq": 24,
      "stationId": "112000012",
      "arsId": "13012",
      "name": "연세대앞",
      "lat": 37.559959,
      "lng": 126.935341,
      "direction": "교대역"
    },
    {
      "routeId": "100100116",
      "seq": 25,
      "stationId": "112000127",
      "arsId": "13210",
      "name": "신촌기차역",
      "lat": 37.558777,
      "lng": 126.94245,
      "direction": "교대역"
    },
    {
      "routeId": "100100116",
      "seq": 26,
      "stationId": "113000418",
      "arsId": "14064",
      "name": "이대역",
      "lat": 37.556652,
      "lng": 126.944495,
      "direction": "교대역"
    },
    {
      "routeId": "100100116",
      "seq": 27,
      "stationId": "113000476",
      "arsId": "14067",
      "name": "웨딩타운",
      "lat": 37.557092,
      "lng": 126.951517,
      "direction": "교대역"
    },
    {
      "routeId": "100100116",
      "seq": 28,
      "stationId": "113000477",
      "arsId": "14068",
      "name": "아현역",
      "lat": 37.557293,
      "lng": 126.954943,
      "direction": "교대역"
    },
    {
      "routeId": "100100116",
      "seq": 29,
      "stationId": "112000430",
      "arsId": "13045",
      "name": "충정로역",
      "lat": 37.560855,
      "lng": 126.963315,
      "direction": "교대역"
    },
    {
      "routeId": "100100116",
      "seq": 30,
      "stationId": "112000399",
      "arsId": "13039",
      "name": "경찰청.동북아역사재단",
      "lat": 37.5624764161,
      "lng": 126.9692243077,
      "direction": "교대역"
    },
    {
      "routeId": "100100116",
      "seq": 31,
      "stationId": "101000004",
      "arsId": "02004",
      "name": "서울역버스환승센터",
      "lat": 37.5554029828,
      "lng": 126.9725924801,
      "direction": "교대역"
    },
    {
      "routeId": "100100116",
      "seq": 32,
      "stationId": "102000012",
      "arsId": "03012",
      "name": "갈월동",
      "lat": 37.5495337218,
      "lng": 126.9717081909,
      "direction": "교대역"
    },
    {
      "routeId": "100100116",
      "seq": 33,
      "stationId": "102000010",
      "arsId": "03010",
      "name": "숙대입구역",
      "lat": 37.5437560216,
      "lng": 126.9722320769,
      "direction": "교대역"
    },
    {
      "routeId": "100100116",
      "seq": 34,
      "stationId": "102000008",
      "arsId": "03008",
      "name": "삼각지역.전쟁기념관",
      "lat": 37.5359845015,
      "lng": 126.9741608708,
      "direction": "교대역"
    },
    {
      "routeId": "100100116",
      "seq": 35,
      "stationId": "102000006",
      "arsId": "03006",
      "name": "용산우체국",
      "lat": 37.5320503694,
      "lng": 126.9705640624,
      "direction": "교대역"
    },
    {
      "routeId": "100100116",
      "seq": 36,
      "stationId": "102000004",
      "arsId": "03004",
      "name": "신용산역",
      "lat": 37.527920489,
      "lng": 126.9666192358,
      "direction": "교대역"
    },
    {
      "routeId": "100100116",
      "seq": 37,
      "stationId": "102000002",
      "arsId": "03002",
      "name": "한강대교북단.LG유플러스",
      "lat": 37.5243060629,
      "lng": 126.9631848403,
      "direction": "교대역"
    },
    {
      "routeId": "100100116",
      "seq": 38,
      "stationId": "102000247",
      "arsId": "03340",
      "name": "노들섬",
      "lat": 37.517515,
      "lng": 126.95861,
      "direction": "교대역"
    },
    {
      "routeId": "100100116",
      "seq": 39,
      "stationId": "119000028",
      "arsId": "20121",
      "name": "노들역",
      "lat": 37.512865,
      "lng": 126.951048,
      "direction": "교대역"
    },
    {
      "routeId": "100100116",
      "seq": 40,
      "stationId": "119000027",
      "arsId": "20119",
      "name": "사육신공원",
      "lat": 37.513315,
      "lng": 126.947977,
      "direction": "교대역"
    },
    {
      "routeId": "100100116",
      "seq": 41,
      "stationId": "119000025",
      "arsId": "20115",
      "name": "노량진역2번출구",
      "lat": 37.513905,
      "lng": 126.943467,
      "direction": "교대역"
    },
    {
      "routeId": "100100116",
      "seq": 42,
      "stationId": "119000097",
      "arsId": "20190",
      "name": "노량진초등학교앞",
      "lat": 37.5105502162,
      "lng": 126.9400540684,
      "direction": "교대역"
    },
    {
      "routeId": "100100116",
      "seq": 43,
      "stationId": "119000099",
      "arsId": "20192",
      "name": "장성교회",
      "lat": 37.5082110072,
      "lng": 126.9399682084,
      "direction": "교대역"
    },
    {
      "routeId": "100100116",
      "seq": 44,
      "stationId": "119000059",
      "arsId": "20152",
      "name": "동작구청.동작보건소건강관리청",
      "lat": 37.504993,
      "lng": 126.94076,
      "direction": "교대역"
    },
    {
      "routeId": "100100116",
      "seq": 45,
      "stationId": "119000061",
      "arsId": "20154",
      "name": "상도노빌리티아파트",
      "lat": 37.504793,
      "lng": 126.94594,
      "direction": "교대역"
    },
    {
      "routeId": "100100116",
      "seq": 46,
      "stationId": "119000067",
      "arsId": "20160",
      "name": "상도역",
      "lat": 37.5016271328,
      "lng": 126.9486225374,
      "direction": "교대역"
    },
    {
      "routeId": "100100116",
      "seq": 47,
      "stationId": "119000069",
      "arsId": "20162",
      "name": "상도동중앙하이츠빌.상도전통시장",
      "lat": 37.4988131751,
      "lng": 126.9511850423,
      "direction": "교대역"
    },
    {
      "routeId": "100100116",
      "seq": 48,
      "stationId": "119000071",
      "arsId": "20164",
      "name": "숭실대입구역",
      "lat": 37.496923,
      "lng": 126.9528,
      "direction": "교대역"
    },
    {
      "routeId": "100100116",
      "seq": 49,
      "stationId": "119000076",
      "arsId": "20169",
      "name": "숭실대중문앞",
      "lat": 37.49515,
      "lng": 126.957055,
      "direction": "교대역"
    },
    {
      "routeId": "100100116",
      "seq": 50,
      "stationId": "119000078",
      "arsId": "20171",
      "name": "숭실대정보과학관앞",
      "lat": 37.4946390733,
      "lng": 126.9602929082,
      "direction": "교대역"
    },
    {
      "routeId": "100100116",
      "seq": 51,
      "stationId": "119000319",
      "arsId": "20254",
      "name": "사당롯데캐슬골든포레.사당해그린",
      "lat": 37.492436,
      "lng": 126.963072,
      "direction": "교대역"
    },
    {
      "routeId": "100100116",
      "seq": 52,
      "stationId": "119000080",
      "arsId": "20173",
      "name": "신남성초등학교",
      "lat": 37.4890277761,
      "lng": 126.9656493194,
      "direction": "교대역"
    },
    {
      "routeId": "100100116",
      "seq": 53,
      "stationId": "119000082",
      "arsId": "20175",
      "name": "총신대",
      "lat": 37.487863,
      "lng": 126.966476,
      "direction": "교대역"
    },
    {
      "routeId": "100100116",
      "seq": 54,
      "stationId": "119000083",
      "arsId": "20176",
      "name": "사당중학교",
      "lat": 37.486355,
      "lng": 126.968275,
      "direction": "교대역"
    },
    {
      "routeId": "100100116",
      "seq": 55,
      "stationId": "119000086",
      "arsId": "20179",
      "name": "남성역",
      "lat": 37.484588,
      "lng": 126.971093,
      "direction": "교대역"
    },
    {
      "routeId": "100100116",
      "seq": 56,
      "stationId": "119000088",
      "arsId": "20181",
      "name": "남성역골목시장",
      "lat": 37.483676,
      "lng": 126.972782,
      "direction": "교대역"
    },
    {
      "routeId": "100100116",
      "seq": 57,
      "stationId": "119000296",
      "arsId": "20252",
      "name": "사당동대아신협앞",
      "lat": 37.483377,
      "lng": 126.97629,
      "direction": "교대역"
    },
    {
      "routeId": "100100116",
      "seq": 58,
      "stationId": "119000089",
      "arsId": "20182",
      "name": "남성초등학교",
      "lat": 37.484075,
      "lng": 126.978585,
      "direction": "교대역"
    },
    {
      "routeId": "100100116",
      "seq": 59,
      "stationId": "119000091",
      "arsId": "20184",
      "name": "이수역9번출구",
      "lat": 37.484445,
      "lng": 126.979895,
      "direction": "교대역"
    },
    {
      "routeId": "100100116",
      "seq": 60,
      "stationId": "121000304",
      "arsId": "22385",
      "name": "이수역5번출구",
      "lat": 37.485489363,
      "lng": 126.9842072627,
      "direction": "교대역"
    },
    {
      "routeId": "100100116",
      "seq": 61,
      "stationId": "121000305",
      "arsId": "22386",
      "name": "방배초등학교",
      "lat": 37.4857402567,
      "lng": 126.9864538307,
      "direction": "교대역"
    },
    {
      "routeId": "100100116",
      "seq": 62,
      "stationId": "121000306",
      "arsId": "22387",
      "name": "방배고개",
      "lat": 37.486497,
      "lng": 126.99018,
      "direction": "교대역"
    },
    {
      "routeId": "100100116",
      "seq": 63,
      "stationId": "121001327",
      "arsId": "22415",
      "name": "내방역1번출구",
      "lat": 37.487993,
      "lng": 126.995335,
      "direction": "교대역"
    },
    {
      "routeId": "100100116",
      "seq": 64,
      "stationId": "121001329",
      "arsId": "22608",
      "name": "서리풀문화광장",
      "lat": 37.491003,
      "lng": 127.005496,
      "direction": "교대역"
    },
    {
      "routeId": "100100116",
      "seq": 65,
      "stationId": "121000300",
      "arsId": "22379",
      "name": "서초역3번출구",
      "lat": 37.491127,
      "lng": 127.007737,
      "direction": "교대역"
    },
    {
      "routeId": "100100116",
      "seq": 66,
      "stationId": "121000066",
      "arsId": "22142",
      "name": "서초동삼성아파트",
      "lat": 37.4885115912,
      "lng": 127.0089653123,
      "direction": "교대역"
    },
    {
      "routeId": "100100116",
      "seq": 67,
      "stationId": "121000084",
      "arsId": "22160",
      "name": "서울교대사거리",
      "lat": 37.487837,
      "lng": 127.01314,
      "direction": "교대역"
    },
    {
      "routeId": "100100116",
      "seq": 68,
      "stationId": "121000058",
      "arsId": "22134",
      "name": "교대역10번출구",
      "lat": 37.493554,
      "lng": 127.012781,
      "direction": "교대역"
    },
    {
      "routeId": "100100116",
      "seq": 69,
      "stationId": "121001328",
      "arsId": "22426",
      "name": "대법원앞",
      "lat": 37.49167,
      "lng": 127.006529,
      "direction": "구산동"
    },
    {
      "routeId": "100100116",
      "seq": 70,
      "stationId": "121000309",
      "arsId": "22391",
      "name": "내방역",
      "lat": 37.487527,
      "lng": 126.992748,
      "direction": "구산동"
    },
    {
      "routeId": "100100116",
      "seq": 71,
      "stationId": "121000310",
      "arsId": "22392",
      "name": "방배고개.방배초등학교",
      "lat": 37.4863886439,
      "lng": 126.9888061591,
      "direction": "구산동"
    },
    {
      "routeId": "100100116",
      "seq": 72,
      "stationId": "121000311",
      "arsId": "22393",
      "name": "이수역",
      "lat": 37.485864,
      "lng": 126.984646,
      "direction": "구산동"
    },
    {
      "routeId": "100100116",
      "seq": 73,
      "stationId": "119000092",
      "arsId": "20185",
      "name": "이수역10번출구",
      "lat": 37.4848328619,
      "lng": 126.9801874958,
      "direction": "구산동"
    },
    {
      "routeId": "100100116",
      "seq": 74,
      "stationId": "119000090",
      "arsId": "20183",
      "name": "남성초등학교",
      "lat": 37.4842992298,
      "lng": 126.9784299949,
      "direction": "구산동"
    },
    {
      "routeId": "100100116",
      "seq": 75,
      "stationId": "119000087",
      "arsId": "20180",
      "name": "남성역골목시장",
      "lat": 37.483805,
      "lng": 126.973014,
      "direction": "구산동"
    },
    {
      "routeId": "100100116",
      "seq": 76,
      "stationId": "119000085",
      "arsId": "20178",
      "name": "남성역",
      "lat": 37.4849291221,
      "lng": 126.9707465249,
      "direction": "구산동"
    },
    {
      "routeId": "100100116",
      "seq": 77,
      "stationId": "119000084",
      "arsId": "20177",
      "name": "사당중학교",
      "lat": 37.4866369532,
      "lng": 126.9681789127,
      "direction": "구산동"
    },
    {
      "routeId": "100100116",
      "seq": 78,
      "stationId": "119000081",
      "arsId": "20174",
      "name": "총신대",
      "lat": 37.4887422791,
      "lng": 126.9661798164,
      "direction": "구산동"
    },
    {
      "routeId": "100100116",
      "seq": 79,
      "stationId": "119000320",
      "arsId": "20213",
      "name": "사당롯데캐슬골든포레.사당해그린",
      "lat": 37.492298,
      "lng": 126.963578,
      "direction": "구산동"
    },
    {
      "routeId": "100100116",
      "seq": 80,
      "stationId": "119000079",
      "arsId": "20172",
      "name": "숭실대레지던스홀앞",
      "lat": 37.4949847404,
      "lng": 126.959906757,
      "direction": "구산동"
    },
    {
      "routeId": "100100116",
      "seq": 81,
      "stationId": "119000077",
      "arsId": "20170",
      "name": "숭실대중문앞",
      "lat": 37.4953183557,
      "lng": 126.9572808442,
      "direction": "구산동"
    },
    {
      "routeId": "100100116",
      "seq": 82,
      "stationId": "119000073",
      "arsId": "20166",
      "name": "숭실대입구역",
      "lat": 37.4964614208,
      "lng": 126.9537334982,
      "direction": "구산동"
    },
    {
      "routeId": "100100116",
      "seq": 83,
      "stationId": "119000070",
      "arsId": "20163",
      "name": "상도동중앙하이츠빌.상도전통시장",
      "lat": 37.4986899661,
      "lng": 126.9517743709,
      "direction": "구산동"
    },
    {
      "routeId": "100100116",
      "seq": 84,
      "stationId": "119000068",
      "arsId": "20161",
      "name": "상도역",
      "lat": 37.5012490566,
      "lng": 126.9495197061,
      "direction": "구산동"
    },
    {
      "routeId": "100100116",
      "seq": 85,
      "stationId": "119000062",
      "arsId": "20155",
      "name": "상도노빌리티아파트",
      "lat": 37.5043269596,
      "lng": 126.9468675132,
      "direction": "구산동"
    },
    {
      "routeId": "100100116",
      "seq": 86,
      "stationId": "119000060",
      "arsId": "20153",
      "name": "동작구청.동작보건소건강관리청",
      "lat": 37.5053297317,
      "lng": 126.9417292605,
      "direction": "구산동"
    },
    {
      "routeId": "100100116",
      "seq": 87,
      "stationId": "119000100",
      "arsId": "20193",
      "name": "청화병원",
      "lat": 37.5072450833,
      "lng": 126.9400798321,
      "direction": "구산동"
    },
    {
      "routeId": "100100116",
      "seq": 88,
      "stationId": "119000098",
      "arsId": "20191",
      "name": "노량진초등학교앞",
      "lat": 37.510453,
      "lng": 126.940337,
      "direction": "구산동"
    },
    {
      "routeId": "100100116",
      "seq": 89,
      "stationId": "119000024",
      "arsId": "20114",
      "name": "노량진역3번출구",
      "lat": 37.513495,
      "lng": 126.941878,
      "direction": "구산동"
    },
    {
      "routeId": "100100116",
      "seq": 90,
      "stationId": "119000013",
      "arsId": "20013",
      "name": "노들역",
      "lat": 37.512825,
      "lng": 126.949256,
      "direction": "구산동"
    },
    {
      "routeId": "100100116",
      "seq": 91,
      "stationId": "102000248",
      "arsId": "03341",
      "name": "노들섬",
      "lat": 37.5173638437,
      "lng": 126.959037665,
      "direction": "구산동"
    },
    {
      "routeId": "100100116",
      "seq": 92,
      "stationId": "102000001",
      "arsId": "03001",
      "name": "한강대교북단.LG유플러스",
      "lat": 37.524049,
      "lng": 126.963121,
      "direction": "구산동"
    },
    {
      "routeId": "100100116",
      "seq": 93,
      "stationId": "102000003",
      "arsId": "03003",
      "name": "신용산역",
      "lat": 37.527293,
      "lng": 126.966207,
      "direction": "구산동"
    },
    {
      "routeId": "100100116",
      "seq": 94,
      "stationId": "102000005",
      "arsId": "03005",
      "name": "용산우체국",
      "lat": 37.5314970129,
      "lng": 126.9702350163,
      "direction": "구산동"
    },
    {
      "routeId": "100100116",
      "seq": 95,
      "stationId": "102000007",
      "arsId": "03007",
      "name": "삼각지역.전쟁기념관",
      "lat": 37.5351801399,
      "lng": 126.9736858311,
      "direction": "구산동"
    },
    {
      "routeId": "100100116",
      "seq": 96,
      "stationId": "102000009",
      "arsId": "03009",
      "name": "숙대입구역",
      "lat": 37.543295633,
      "lng": 126.9725377982,
      "direction": "구산동"
    },
    {
      "routeId": "100100116",
      "seq": 97,
      "stationId": "102000011",
      "arsId": "03011",
      "name": "갈월동",
      "lat": 37.5509755993,
      "lng": 126.9722373211,
      "direction": "구산동"
    },
    {
      "routeId": "100100116",
      "seq": 98,
      "stationId": "101000018",
      "arsId": "02110",
      "name": "경찰청.동북아역사재단",
      "lat": 37.5630494858,
      "lng": 126.9691267228,
      "direction": "구산동"
    },
    {
      "routeId": "100100116",
      "seq": 99,
      "stationId": "112000429",
      "arsId": "13046",
      "name": "충정로역",
      "lat": 37.5598429758,
      "lng": 126.9624710247,
      "direction": "구산동"
    },
    {
      "routeId": "100100116",
      "seq": 100,
      "stationId": "113000478",
      "arsId": "13044",
      "name": "아현역",
      "lat": 37.557396,
      "lng": 126.956889,
      "direction": "구산동"
    },
    {
      "routeId": "100100116",
      "seq": 101,
      "stationId": "113000475",
      "arsId": "13042",
      "name": "웨딩타운",
      "lat": 37.55724,
      "lng": 126.952552,
      "direction": "구산동"
    },
    {
      "routeId": "100100116",
      "seq": 102,
      "stationId": "112000057",
      "arsId": "13140",
      "name": "이대역4번출구",
      "lat": 37.5569841725,
      "lng": 126.9465754208,
      "direction": "구산동"
    },
    {
      "routeId": "100100116",
      "seq": 103,
      "stationId": "112000058",
      "arsId": "13141",
      "name": "신촌기차역입구",
      "lat": 37.5568082054,
      "lng": 126.9438432587,
      "direction": "구산동"
    },
    {
      "routeId": "100100116",
      "seq": 104,
      "stationId": "112000128",
      "arsId": "13211",
      "name": "신촌기차역",
      "lat": 37.558355,
      "lng": 126.94293,
      "direction": "구산동"
    },
    {
      "routeId": "100100116",
      "seq": 105,
      "stationId": "112000035",
      "arsId": "13118",
      "name": "이대부중",
      "lat": 37.5622161608,
      "lng": 126.9429924976,
      "direction": "구산동"
    },
    {
      "routeId": "100100116",
      "seq": 106,
      "stationId": "112000037",
      "arsId": "13120",
      "name": "이대부고",
      "lat": 37.565531,
      "lng": 126.946423,
      "direction": "구산동"
    },
    {
      "routeId": "100100116",
      "seq": 107,
      "stationId": "112000036",
      "arsId": "13119",
      "name": "이대부중",
      "lat": 37.5636440514,
      "lng": 126.9441630049,
      "direction": "구산동"
    },
    {
      "routeId": "100100116",
      "seq": 108,
      "stationId": "112000015",
      "arsId": "13015",
      "name": "세브란스병원앞",
      "lat": 37.5601326008,
      "lng": 126.9389236898,
      "direction": "구산동"
    },
    {
      "routeId": "100100116",
      "seq": 109,
      "stationId": "112000013",
      "arsId": "13013",
      "name": "연세대앞",
      "lat": 37.5601569117,
      "lng": 126.9354996016,
      "direction": "구산동"
    },
    {
      "routeId": "100100116",
      "seq": 110,
      "stationId": "112000011",
      "arsId": "13011",
      "name": "서대문우체국",
      "lat": 37.5625326219,
      "lng": 126.9314621185,
      "direction": "구산동"
    },
    {
      "routeId": "100100116",
      "seq": 111,
      "stationId": "112000009",
      "arsId": "13009",
      "name": "연희104고지앞.궁동근린공원",
      "lat": 37.5663570321,
      "lng": 126.9257860764,
      "direction": "구산동"
    },
    {
      "routeId": "100100116",
      "seq": 112,
      "stationId": "112000026",
      "arsId": "13109",
      "name": "사천교",
      "lat": 37.5680820886,
      "lng": 126.9175934441,
      "direction": "구산동"
    },
    {
      "routeId": "100100116",
      "seq": 113,
      "stationId": "112000024",
      "arsId": "13107",
      "name": "모래내시장.가좌역",
      "lat": 37.569921,
      "lng": 126.913963,
      "direction": "구산동"
    },
    {
      "routeId": "100100116",
      "seq": 114,
      "stationId": "112000098",
      "arsId": "13181",
      "name": "삼성래미안2차아파트",
      "lat": 37.57125,
      "lng": 126.913812,
      "direction": "구산동"
    },
    {
      "routeId": "100100116",
      "seq": 115,
      "stationId": "112000432",
      "arsId": "13339",
      "name": "DMC파크뷰자이",
      "lat": 37.5737656896,
      "lng": 126.9163415838,
      "direction": "구산동"
    },
    {
      "routeId": "100100116",
      "seq": 116,
      "stationId": "112000105",
      "arsId": "13188",
      "name": "DMC센트레빌아파트",
      "lat": 37.575307,
      "lng": 126.915772,
      "direction": "구산동"
    },
    {
      "routeId": "100100116",
      "seq": 117,
      "stationId": "112000103",
      "arsId": "13186",
      "name": "북가좌삼호.DMC아이파크아파트",
      "lat": 37.57553,
      "lng": 126.913058,
      "direction": "구산동"
    },
    {
      "routeId": "100100116",
      "seq": 118,
      "stationId": "112000101",
      "arsId": "13184",
      "name": "모래내우체국.증가교회",
      "lat": 37.576322,
      "lng": 126.911825,
      "direction": "구산동"
    },
    {
      "routeId": "100100116",
      "seq": 119,
      "stationId": "112000181",
      "arsId": "13264",
      "name": "북가좌초교사거리",
      "lat": 37.578365,
      "lng": 126.910333,
      "direction": "구산동"
    },
    {
      "routeId": "100100116",
      "seq": 120,
      "stationId": "112000091",
      "arsId": "13174",
      "name": "북가좌오거리",
      "lat": 37.579833,
      "lng": 126.911478,
      "direction": "구산동"
    },
    {
      "routeId": "100100116",
      "seq": 121,
      "stationId": "112000093",
      "arsId": "13176",
      "name": "북가좌2동주민센터",
      "lat": 37.5820367519,
      "lng": 126.9131368767,
      "direction": "구산동"
    },
    {
      "routeId": "100100116",
      "seq": 122,
      "stationId": "112000095",
      "arsId": "13178",
      "name": "동도하이츠아파트",
      "lat": 37.5846770601,
      "lng": 126.9150178885,
      "direction": "구산동"
    },
    {
      "routeId": "100100116",
      "seq": 123,
      "stationId": "111000078",
      "arsId": "12166",
      "name": "대림시장",
      "lat": 37.5886847389,
      "lng": 126.9170368506,
      "direction": "구산동"
    },
    {
      "routeId": "100100116",
      "seq": 124,
      "stationId": "111000069",
      "arsId": "12157",
      "name": "응암오거리",
      "lat": 37.5907361763,
      "lng": 126.9165521769,
      "direction": "구산동"
    },
    {
      "routeId": "100100116",
      "seq": 125,
      "stationId": "111000070",
      "arsId": "12158",
      "name": "신사초등학교",
      "lat": 37.5931399182,
      "lng": 126.9135451755,
      "direction": "구산동"
    },
    {
      "routeId": "100100116",
      "seq": 126,
      "stationId": "111000071",
      "arsId": "12159",
      "name": "신사동고개사거리",
      "lat": 37.596033,
      "lng": 126.909871,
      "direction": "구산동"
    },
    {
      "routeId": "100100116",
      "seq": 127,
      "stationId": "111000122",
      "arsId": "12210",
      "name": "신사동고개삼거리",
      "lat": 37.5984133304,
      "lng": 126.910253684,
      "direction": "구산동"
    },
    {
      "routeId": "100100116",
      "seq": 128,
      "stationId": "111000123",
      "arsId": "12211",
      "name": "서울기독대학교입구",
      "lat": 37.6014374785,
      "lng": 126.9103848244,
      "direction": "구산동"
    },
    {
      "routeId": "100100116",
      "seq": 129,
      "stationId": "111000124",
      "arsId": "12212",
      "name": "시립서북병원세현교회앞",
      "lat": 37.6061458636,
      "lng": 126.910658933,
      "direction": "구산동"
    },
    {
      "routeId": "100100116",
      "seq": 130,
      "stationId": "111000125",
      "arsId": "12213",
      "name": "구산중학교.구산교회",
      "lat": 37.608955,
      "lng": 126.91102,
      "direction": "구산동"
    },
    {
      "routeId": "100100116",
      "seq": 131,
      "stationId": "111000126",
      "arsId": "12214",
      "name": "구산동주민센터",
      "lat": 37.61138,
      "lng": 126.911363,
      "direction": "구산동"
    },
    {
      "routeId": "100100116",
      "seq": 132,
      "stationId": "111000055",
      "arsId": "12143",
      "name": "선진운수종점",
      "lat": 37.614342,
      "lng": 126.910458,
      "direction": "구산동"
    }
  ]
}