{
  "routeId": "104000011",
  "collectedAt": "2026-04-14T02:48:51.162Z",
  "stops": [
    {
      "routeId": "104000011",
      "routeNo": "N31",
      "seq": 1,
      "stationId": "124000001",
      "arsId": "25101",
      "name": "강동공영차고지",
      "lat": 37.564066,
      "lng": 127.173885
    },
    {
      "routeId": "104000011",
      "routeNo": "N31",
      "seq": 2,
      "stationId": "124000003",
      "arsId": "25103",
      "name": "고덕리엔파크1단지",
      "lat": 37.5611595214,
      "lng": 127.1704714177
    },
    {
      "routeId": "104000011",
      "routeNo": "N31",
      "seq": 3,
      "stationId": "124000005",
      "arsId": "25105",
      "name": "해뜨는주유소",
      "lat": 37.559102,
      "lng": 127.170805
    },
    {
      "routeId": "104000011",
      "routeNo": "N31",
      "seq": 4,
      "stationId": "124000031",
      "arsId": "25131",
      "name": "상일동역4번출구.센트럴푸르지오",
      "lat": 37.557235,
      "lng": 127.169638
    },
    {
      "routeId": "104000011",
      "routeNo": "N31",
      "seq": 5,
      "stationId": "124000033",
      "arsId": "25133",
      "name": "상일동역1번출구",
      "lat": 37.556517,
      "lng": 127.163945
    },
    {
      "routeId": "104000011",
      "routeNo": "N31",
      "seq": 6,
      "stationId": "124000035",
      "arsId": "25135",
      "name": "고덕그라시움",
      "lat": 37.556107,
      "lng": 127.160702
    },
    {
      "routeId": "104000011",
      "routeNo": "N31",
      "seq": 7,
      "stationId": "124000037",
      "arsId": "25137",
      "name": "고덕평생학습관.온조대왕체육관",
      "lat": 37.5556884118,
      "lng": 127.1581417355
    },
    {
      "routeId": "104000011",
      "routeNo": "N31",
      "seq": 8,
      "stationId": "124000039",
      "arsId": "25139",
      "name": "고덕역",
      "lat": 37.555437,
      "lng": 127.155862
    },
    {
      "routeId": "104000011",
      "routeNo": "N31",
      "seq": 9,
      "stationId": "124000041",
      "arsId": "25141",
      "name": "배재중고등학교",
      "lat": 37.554855,
      "lng": 127.149323
    },
    {
      "routeId": "104000011",
      "routeNo": "N31",
      "seq": 10,
      "stationId": "124000043",
      "arsId": "25143",
      "name": "동부기술교육원.장애인종합복지관",
      "lat": 37.5547923189,
      "lng": 127.146584873
    },
    {
      "routeId": "104000011",
      "routeNo": "N31",
      "seq": 11,
      "stationId": "124000045",
      "arsId": "25145",
      "name": "명일초등학교",
      "lat": 37.5548673708,
      "lng": 127.1434373656
    },
    {
      "routeId": "104000011",
      "routeNo": "N31",
      "seq": 12,
      "stationId": "124000047",
      "arsId": "25147",
      "name": "암사3동주민센터(강동롯데캐슬퍼스트)",
      "lat": 37.554877,
      "lng": 127.139195
    },
    {
      "routeId": "104000011",
      "routeNo": "N31",
      "seq": 13,
      "stationId": "124000049",
      "arsId": "25149",
      "name": "강일중.선사고",
      "lat": 37.554863,
      "lng": 127.137023
    },
    {
      "routeId": "104000011",
      "routeNo": "N31",
      "seq": 14,
      "stationId": "124000051",
      "arsId": "25151",
      "name": "신암중학교",
      "lat": 37.5548390685,
      "lng": 127.1313639495
    },
    {
      "routeId": "104000011",
      "routeNo": "N31",
      "seq": 15,
      "stationId": "124000053",
      "arsId": "25153",
      "name": "삼성광나루아파트",
      "lat": 37.55338,
      "lng": 127.128557
    },
    {
      "routeId": "104000011",
      "routeNo": "N31",
      "seq": 16,
      "stationId": "124000055",
      "arsId": "25155",
      "name": "암사역.선사현대아파트",
      "lat": 37.5506992115,
      "lng": 127.1275580607
    },
    {
      "routeId": "104000011",
      "routeNo": "N31",
      "seq": 17,
      "stationId": "124000057",
      "arsId": "25157",
      "name": "천호동공원",
      "lat": 37.5459692284,
      "lng": 127.1259116562
    },
    {
      "routeId": "104000011",
      "routeNo": "N31",
      "seq": 18,
      "stationId": "124000059",
      "arsId": "25159",
      "name": "서울현대요양병원",
      "lat": 37.54297,
      "lng": 127.124789
    },
    {
      "routeId": "104000011",
      "routeNo": "N31",
      "seq": 19,
      "stationId": "124000061",
      "arsId": "25161",
      "name": "천호역2번출구.현대백화점",
      "lat": 37.540348,
      "lng": 127.123927
    },
    {
      "routeId": "104000011",
      "routeNo": "N31",
      "seq": 20,
      "stationId": "123000017",
      "arsId": "24101",
      "name": "천호역.풍납시장",
      "lat": 37.537038,
      "lng": 127.122575
    },
    {
      "routeId": "104000011",
      "routeNo": "N31",
      "seq": 21,
      "stationId": "123000023",
      "arsId": "24109",
      "name": "영파여고.강동구청역",
      "lat": 37.531253,
      "lng": 127.120507
    },
    {
      "routeId": "104000011",
      "routeNo": "N31",
      "seq": 22,
      "stationId": "123000376",
      "arsId": "24468",
      "name": "풍납현대아파트",
      "lat": 37.5287587812,
      "lng": 127.1193610526
    },
    {
      "routeId": "104000011",
      "routeNo": "N31",
      "seq": 23,
      "stationId": "123000024",
      "arsId": "24110",
      "name": "풍납동극동.쌍용아파트",
      "lat": 37.5265632485,
      "lng": 127.1180236157
    },
    {
      "routeId": "104000011",
      "routeNo": "N31",
      "seq": 24,
      "stationId": "123000034",
      "arsId": "24123",
      "name": "잠실파크리오아파트상가.올림픽회관",
      "lat": 37.521023915,
      "lng": 127.1146491783
    },
    {
      "routeId": "104000011",
      "routeNo": "N31",
      "seq": 25,
      "stationId": "123000038",
      "arsId": "24127",
      "name": "몽촌토성역",
      "lat": 37.518515,
      "lng": 127.113109
    },
    {
      "routeId": "104000011",
      "routeNo": "N31",
      "seq": 26,
      "stationId": "123000039",
      "arsId": "24128",
      "name": "신천동진주아파트",
      "lat": 37.516665,
      "lng": 127.109397
    },
    {
      "routeId": "104000011",
      "routeNo": "N31",
      "seq": 27,
      "stationId": "123000043",
      "arsId": "24132",
      "name": "잠실역8번출구",
      "lat": 37.51401,
      "lng": 127.101538
    },
    {
      "routeId": "104000011",
      "routeNo": "N31",
      "seq": 28,
      "stationId": "123000049",
      "arsId": "24138",
      "name": "잠실역.롯데월드",
      "lat": 37.512951,
      "lng": 127.097765
    },
    {
      "routeId": "104000011",
      "routeNo": "N31",
      "seq": 29,
      "stationId": "123000050",
      "arsId": "24139",
      "name": "잠실5단지",
      "lat": 37.5122132454,
      "lng": 127.0939144028
    },
    {
      "routeId": "104000011",
      "routeNo": "N31",
      "seq": 30,
      "stationId": "123000052",
      "arsId": "24141",
      "name": "잠실새내역.잠실2동주민센터",
      "lat": 37.5117722886,
      "lng": 127.0872805398
    },
    {
      "routeId": "104000011",
      "routeNo": "N31",
      "seq": 31,
      "stationId": "123000053",
      "arsId": "24142",
      "name": "잠실엘스아파트앞",
      "lat": 37.5118706155,
      "lng": 127.0833904794
    },
    {
      "routeId": "104000011",
      "routeNo": "N31",
      "seq": 32,
      "stationId": "123000054",
      "arsId": "24143",
      "name": "종합운동장사거리",
      "lat": 37.51206,
      "lng": 127.079682
    },
    {
      "routeId": "104000011",
      "routeNo": "N31",
      "seq": 33,
      "stationId": "123000055",
      "arsId": "24144",
      "name": "잠실종합운동장",
      "lat": 37.5111175337,
      "lng": 127.0720732937
    },
    {
      "routeId": "104000011",
      "routeNo": "N31",
      "seq": 34,
      "stationId": "122000093",
      "arsId": "23196",
      "name": "강남경찰서.강남운전면허시험장",
      "lat": 37.5098983164,
      "lng": 127.0659088469
    },
    {
      "routeId": "104000011",
      "routeNo": "N31",
      "seq": 35,
      "stationId": "122000098",
      "arsId": "23201",
      "name": "한국무역센터.삼성역",
      "lat": 37.508448,
      "lng": 127.060899
    },
    {
      "routeId": "104000011",
      "routeNo": "N31",
      "seq": 36,
      "stationId": "122000114",
      "arsId": "23217",
      "name": "포스코건너편",
      "lat": 37.5066831874,
      "lng": 127.0554269279
    },
    {
      "routeId": "104000011",
      "routeNo": "N31",
      "seq": 37,
      "stationId": "122000115",
      "arsId": "23218",
      "name": "선릉역",
      "lat": 37.505143,
      "lng": 127.050205
    },
    {
      "routeId": "104000011",
      "routeNo": "N31",
      "seq": 38,
      "stationId": "122000174",
      "arsId": "23277",
      "name": "서울상록회관.한국기술센터",
      "lat": 37.503232,
      "lng": 127.044057
    },
    {
      "routeId": "104000011",
      "routeNo": "N31",
      "seq": 39,
      "stationId": "122000177",
      "arsId": "23280",
      "name": "아가방빌딩.하나은행",
      "lat": 37.50164,
      "lng": 127.038772
    },
    {
      "routeId": "104000011",
      "routeNo": "N31",
      "seq": 40,
      "stationId": "122000180",
      "arsId": "23283",
      "name": "역삼역4번출구",
      "lat": 37.500428,
      "lng": 127.034735
    },
    {
      "routeId": "104000011",
      "routeNo": "N31",
      "seq": 41,
      "stationId": "122000181",
      "arsId": "23284",
      "name": "강남역12번출구",
      "lat": 37.49881,
      "lng": 127.029558
    },
    {
      "routeId": "104000011",
      "routeNo": "N31",
      "seq": 42,
      "stationId": "121000012",
      "arsId": "22012",
      "name": "지하철2호선강남역",
      "lat": 37.500785,
      "lng": 127.02637
    },
    {
      "routeId": "104000011",
      "routeNo": "N31",
      "seq": 43,
      "stationId": "121000014",
      "arsId": "22014",
      "name": "논현역",
      "lat": 37.506367,
      "lng": 127.023728
    },
    {
      "routeId": "104000011",
      "routeNo": "N31",
      "seq": 44,
      "stationId": "121000016",
      "arsId": "22016",
      "name": "신사역",
      "lat": 37.512972,
      "lng": 127.020607
    },
    {
      "routeId": "104000011",
      "routeNo": "N31",
      "seq": 45,
      "stationId": "102000072",
      "arsId": "03166",
      "name": "한남오거리",
      "lat": 37.5328478217,
      "lng": 127.0083126426
    },
    {
      "routeId": "104000011",
      "routeNo": "N31",
      "seq": 46,
      "stationId": "102000068",
      "arsId": "03162",
      "name": "순천향대학병원",
      "lat": 37.5364422432,
      "lng": 127.0057302453
    },
    {
      "routeId": "104000011",
      "routeNo": "N31",
      "seq": 47,
      "stationId": "102000102",
      "arsId": "03196",
      "name": "한강진역.블루스퀘어",
      "lat": 37.540805,
      "lng": 127.001695
    },
    {
      "routeId": "104000011",
      "routeNo": "N31",
      "seq": 48,
      "stationId": "102000100",
      "arsId": "03194",
      "name": "한남동주민센터",
      "lat": 37.537047,
      "lng": 127.000468
    },
    {
      "routeId": "104000011",
      "routeNo": "N31",
      "seq": 49,
      "stationId": "102000098",
      "arsId": "03192",
      "name": "이태원119안전센터",
      "lat": 37.53479,
      "lng": 126.996387
    },
    {
      "routeId": "104000011",
      "routeNo": "N31",
      "seq": 50,
      "stationId": "102000096",
      "arsId": "03190",
      "name": "이태원역1번출구.해밀턴호텔",
      "lat": 37.534552,
      "lng": 126.993043
    },
    {
      "routeId": "104000011",
      "routeNo": "N31",
      "seq": 51,
      "stationId": "102000094",
      "arsId": "03188",
      "name": "용산구청.이태원시장",
      "lat": 37.534375,
      "lng": 126.99046
    },
    {
      "routeId": "104000011",
      "routeNo": "N31",
      "seq": 52,
      "stationId": "102000058",
      "arsId": "03152",
      "name": "국군재정관리단",
      "lat": 37.537318,
      "lng": 126.986848
    },
    {
      "routeId": "104000011",
      "routeNo": "N31",
      "seq": 53,
      "stationId": "102000055",
      "arsId": "03149",
      "name": "이태원동남산대림아파트.용산동아파트",
      "lat": 37.539873,
      "lng": 126.987478
    },
    {
      "routeId": "104000011",
      "routeNo": "N31",
      "seq": 54,
      "stationId": "102000054",
      "arsId": "03148",
      "name": "용암초등학교입구.이태원주공아파트",
      "lat": 37.544109,
      "lng": 126.988666
    },
    {
      "routeId": "104000011",
      "routeNo": "N31",
      "seq": 55,
      "stationId": "101000049",
      "arsId": "02148",
      "name": "남산3호터널.정화예술대학교",
      "lat": 37.5595260891,
      "lng": 126.9826359346
    },
    {
      "routeId": "104000011",
      "routeNo": "N31",
      "seq": 56,
      "stationId": "101000043",
      "arsId": "02142",
      "name": "명동.롯데영플라자",
      "lat": 37.562885,
      "lng": 126.982008
    },
    {
      "routeId": "104000011",
      "routeNo": "N31",
      "seq": 57,
      "stationId": "101000040",
      "arsId": "02139",
      "name": "우리은행종로지점",
      "lat": 37.5678390393,
      "lng": 126.9828658628
    },
    {
      "routeId": "104000011",
      "routeNo": "N31",
      "seq": 58,
      "stationId": "100000388",
      "arsId": "01013",
      "name": "종로2가",
      "lat": 37.57017,
      "lng": 126.984991
    },
    {
      "routeId": "104000011",
      "routeNo": "N31",
      "seq": 59,
      "stationId": "100000390",
      "arsId": "01015",
      "name": "종로3가.탑골공원",
      "lat": 37.5702567706,
      "lng": 126.9892689914
    },
    {
      "routeId": "104000011",
      "routeNo": "N31",
      "seq": 60,
      "stationId": "100000392",
      "arsId": "01017",
      "name": "종로4가.종묘",
      "lat": 37.5705069968,
      "lng": 126.9947218896
    },
    {
      "routeId": "104000011",
      "routeNo": "N31",
      "seq": 61,
      "stationId": "100000394",
      "arsId": "01019",
      "name": "종로5가.광장시장",
      "lat": 37.570787,
      "lng": 126.999061
    },
    {
      "routeId": "104000011",
      "routeNo": "N31",
      "seq": 62,
      "stationId": "100000108",
      "arsId": "01204",
      "name": "효제동.김상옥의거터",
      "lat": 37.5745,
      "lng": 127.00223
    },
    {
      "routeId": "104000011",
      "routeNo": "N31",
      "seq": 63,
      "stationId": "100000123",
      "arsId": "01219",
      "name": "방송통신대.이화장",
      "lat": 37.578043,
      "lng": 127.002437
    },
    {
      "routeId": "104000011",
      "routeNo": "N31",
      "seq": 64,
      "stationId": "100000124",
      "arsId": "01220",
      "name": "혜화역2번출구.마로니에공원",
      "lat": 37.5811194873,
      "lng": 127.0022769364
    },
    {
      "routeId": "104000011",
      "routeNo": "N31",
      "seq": 65,
      "stationId": "100000133",
      "arsId": "01229",
      "name": "혜화역.동성중고(장면총리가옥)",
      "lat": 37.5845329425,
      "lng": 127.0015561579
    },
    {
      "routeId": "104000011",
      "routeNo": "N31",
      "seq": 66,
      "stationId": "107000010",
      "arsId": "08010",
      "name": "삼선교.한성대학교.조소앙활동터",
      "lat": 37.5893632989,
      "lng": 127.0082049442
    },
    {
      "routeId": "104000011",
      "routeNo": "N31",
      "seq": 67,
      "stationId": "107000175",
      "arsId": "08270",
      "name": "성신여대입구역6번출구",
      "lat": 37.5937466869,
      "lng": 127.0164185434
    },
    {
      "routeId": "104000011",
      "routeNo": "N31",
      "seq": 68,
      "stationId": "107000173",
      "arsId": "08268",
      "name": "돈암2동주민센터입구.흥천사",
      "lat": 37.596197,
      "lng": 127.015603
    },
    {
      "routeId": "104000011",
      "routeNo": "N31",
      "seq": 69,
      "stationId": "107000171",
      "arsId": "08266",
      "name": "아리랑고개.아리랑시네미디어센터",
      "lat": 37.600468,
      "lng": 127.013738
    },
    {
      "routeId": "104000011",
      "routeNo": "N31",
      "seq": 70,
      "stationId": "107000169",
      "arsId": "08264",
      "name": "정릉입구.정릉역",
      "lat": 37.602875,
      "lng": 127.013502
    },
    {
      "routeId": "104000011",
      "routeNo": "N31",
      "seq": 71,
      "stationId": "107000028",
      "arsId": "08118",
      "name": "정릉2동주민센터",
      "lat": 37.604978,
      "lng": 127.0112
    },
    {
      "routeId": "104000011",
      "routeNo": "N31",
      "seq": 72,
      "stationId": "107000026",
      "arsId": "08116",
      "name": "봉국사",
      "lat": 37.606138,
      "lng": 127.007657
    },
    {
      "routeId": "104000011",
      "routeNo": "N31",
      "seq": 73,
      "stationId": "107000024",
      "arsId": "08114",
      "name": "고려대사범대학부속고등학교",
      "lat": 37.607888,
      "lng": 127.002378
    },
    {
      "routeId": "104000011",
      "routeNo": "N31",
      "seq": 74,
      "stationId": "107000022",
      "arsId": "08112",
      "name": "청덕초교",
      "lat": 37.60863,
      "lng": 127.00006
    },
    {
      "routeId": "104000011",
      "routeNo": "N31",
      "seq": 75,
      "stationId": "107000018",
      "arsId": "08108",
      "name": "국민대앞",
      "lat": 37.61109,
      "lng": 126.994079
    },
    {
      "routeId": "104000011",
      "routeNo": "N31",
      "seq": 76,
      "stationId": "107000017",
      "arsId": "08107",
      "name": "국민대앞",
      "lat": 37.6106795513,
      "lng": 126.9940273315
    },
    {
      "routeId": "104000011",
      "routeNo": "N31",
      "seq": 77,
      "stationId": "107000021",
      "arsId": "08111",
      "name": "청덕초등학교",
      "lat": 37.608787,
      "lng": 126.999112
    },
    {
      "routeId": "104000011",
      "routeNo": "N31",
      "seq": 78,
      "stationId": "107000023",
      "arsId": "08113",
      "name": "북악중학교",
      "lat": 37.607386,
      "lng": 127.002908
    },
    {
      "routeId": "104000011",
      "routeNo": "N31",
      "seq": 79,
      "stationId": "107000025",
      "arsId": "08115",
      "name": "봉국사",
      "lat": 37.605854,
      "lng": 127.007624
    },
    {
      "routeId": "104000011",
      "routeNo": "N31",
      "seq": 80,
      "stationId": "107000027",
      "arsId": "08117",
      "name": "정릉2동주민센터",
      "lat": 37.604593,
      "lng": 127.011258
    },
    {
      "routeId": "104000011",
      "routeNo": "N31",
      "seq": 81,
      "stationId": "107000168",
      "arsId": "08263",
      "name": "정릉입구.정릉역",
      "lat": 37.6024257513,
      "lng": 127.0135090711
    },
    {
      "routeId": "104000011",
      "routeNo": "N31",
      "seq": 82,
      "stationId": "107000170",
      "arsId": "08265",
      "name": "아리랑고개.아리랑시네미디어센터",
      "lat": 37.6006317832,
      "lng": 127.0137784395
    },
    {
      "routeId": "104000011",
      "routeNo": "N31",
      "seq": 83,
      "stationId": "107000172",
      "arsId": "08267",
      "name": "돈암2동주민센터입구.흥천사",
      "lat": 37.596722,
      "lng": 127.015117
    },
    {
      "routeId": "104000011",
      "routeNo": "N31",
      "seq": 84,
      "stationId": "107000174",
      "arsId": "08269",
      "name": "성신여대입구역5번출구",
      "lat": 37.5937399685,
      "lng": 127.0161354636
    },
    {
      "routeId": "104000011",
      "routeNo": "N31",
      "seq": 85,
      "stationId": "107000009",
      "arsId": "08009",
      "name": "삼선교.한성대학교",
      "lat": 37.5899648397,
      "lng": 127.0093351178
    },
    {
      "routeId": "104000011",
      "routeNo": "N31",
      "seq": 86,
      "stationId": "100000005",
      "arsId": "01005",
      "name": "혜화동로터리.여운형활동터",
      "lat": 37.586243,
      "lng": 127.001744
    },
    {
      "routeId": "104000011",
      "routeNo": "N31",
      "seq": 87,
      "stationId": "100000003",
      "arsId": "01003",
      "name": "명륜3가.성대입구",
      "lat": 37.582581,
      "lng": 126.998251
    },
    {
      "routeId": "104000011",
      "routeNo": "N31",
      "seq": 88,
      "stationId": "100000002",
      "arsId": "01002",
      "name": "창경궁.서울대학교병원",
      "lat": 37.579433,
      "lng": 126.996522
    },
    {
      "routeId": "104000011",
      "routeNo": "N31",
      "seq": 89,
      "stationId": "100000102",
      "arsId": "01198",
      "name": "원남동",
      "lat": 37.5745325055,
      "lng": 126.9973383362
    },
    {
      "routeId": "104000011",
      "routeNo": "N31",
      "seq": 90,
      "stationId": "100000393",
      "arsId": "01018",
      "name": "종로4가.종묘",
      "lat": 37.570637,
      "lng": 126.995396
    },
    {
      "routeId": "104000011",
      "routeNo": "N31",
      "seq": 91,
      "stationId": "100000391",
      "arsId": "01016",
      "name": "종로3가.탑골공원",
      "lat": 37.5703605443,
      "lng": 126.9899877751
    },
    {
      "routeId": "104000011",
      "routeNo": "N31",
      "seq": 92,
      "stationId": "100000389",
      "arsId": "01014",
      "name": "종로2가",
      "lat": 37.570238,
      "lng": 126.986536
    },
    {
      "routeId": "104000011",
      "routeNo": "N31",
      "seq": 93,
      "stationId": "101000141",
      "arsId": "02246",
      "name": "을지로입구역.광교",
      "lat": 37.5676492567,
      "lng": 126.9825656304
    },
    {
      "routeId": "104000011",
      "routeNo": "N31",
      "seq": 94,
      "stationId": "101000041",
      "arsId": "02140",
      "name": "롯데백화점",
      "lat": 37.56451,
      "lng": 126.982205
    },
    {
      "routeId": "104000011",
      "routeNo": "N31",
      "seq": 95,
      "stationId": "101000045",
      "arsId": "02144",
      "name": "신세계백화점",
      "lat": 37.561128,
      "lng": 126.981432
    },
    {
      "routeId": "104000011",
      "routeNo": "N31",
      "seq": 96,
      "stationId": "101000048",
      "arsId": "02147",
      "name": "남산3호터널",
      "lat": 37.558312,
      "lng": 126.98274
    },
    {
      "routeId": "104000011",
      "routeNo": "N31",
      "seq": 97,
      "stationId": "102000056",
      "arsId": "03150",
      "name": "용산한신아파트",
      "lat": 37.5398054732,
      "lng": 126.9871086322
    },
    {
      "routeId": "104000011",
      "routeNo": "N31",
      "seq": 98,
      "stationId": "102000057",
      "arsId": "03151",
      "name": "해방촌",
      "lat": 37.537816,
      "lng": 126.986605
    },
    {
      "routeId": "104000011",
      "routeNo": "N31",
      "seq": 99,
      "stationId": "102000095",
      "arsId": "03189",
      "name": "용산구청.이태원시장",
      "lat": 37.534113,
      "lng": 126.990007
    },
    {
      "routeId": "104000011",
      "routeNo": "N31",
      "seq": 100,
      "stationId": "102000097",
      "arsId": "03191",
      "name": "이태원역4번출구.해밀턴호텔",
      "lat": 37.534355,
      "lng": 126.993431
    },
    {
      "routeId": "104000011",
      "routeNo": "N31",
      "seq": 101,
      "stationId": "102000099",
      "arsId": "03193",
      "name": "이태원119안전센터",
      "lat": 37.534605,
      "lng": 126.997181
    },
    {
      "routeId": "104000011",
      "routeNo": "N31",
      "seq": 102,
      "stationId": "102000101",
      "arsId": "03195",
      "name": "한남동주민센터",
      "lat": 37.537013,
      "lng": 127.000807
    },
    {
      "routeId": "104000011",
      "routeNo": "N31",
      "seq": 103,
      "stationId": "102000103",
      "arsId": "03197",
      "name": "한강진역.블루스퀘어",
      "lat": 37.54093,
      "lng": 127.002023
    },
    {
      "routeId": "104000011",
      "routeNo": "N31",
      "seq": 104,
      "stationId": "102000071",
      "arsId": "03165",
      "name": "순천향대학병원.한남오거리",
      "lat": 37.5354906847,
      "lng": 127.0057290409
    },
    {
      "routeId": "104000011",
      "routeNo": "N31",
      "seq": 105,
      "stationId": "121000015",
      "arsId": "22015",
      "name": "신사역.푸른저축은행",
      "lat": 37.5141369914,
      "lng": 127.0200636589
    },
    {
      "routeId": "104000011",
      "routeNo": "N31",
      "seq": 106,
      "stationId": "121000013",
      "arsId": "22013",
      "name": "논현역",
      "lat": 37.5072264964,
      "lng": 127.0230319441
    },
    {
      "routeId": "104000011",
      "routeNo": "N31",
      "seq": 107,
      "stationId": "121000011",
      "arsId": "22011",
      "name": "지하철2호선강남역",
      "lat": 37.501795842,
      "lng": 127.0257426414
    },
    {
      "routeId": "104000011",
      "routeNo": "N31",
      "seq": 108,
      "stationId": "122000184",
      "arsId": "23287",
      "name": "강남역1번출구.역삼세무서",
      "lat": 37.4982974547,
      "lng": 127.0290968277
    },
    {
      "routeId": "104000011",
      "routeNo": "N31",
      "seq": 109,
      "stationId": "122000185",
      "arsId": "23288",
      "name": "역삼역.포스코타워역삼",
      "lat": 37.49949,
      "lng": 127.033598
    },
    {
      "routeId": "104000011",
      "routeNo": "N31",
      "seq": 110,
      "stationId": "122000201",
      "arsId": "23305",
      "name": "대한사회복지회",
      "lat": 37.501137,
      "lng": 127.038818
    },
    {
      "routeId": "104000011",
      "routeNo": "N31",
      "seq": 111,
      "stationId": "122000202",
      "arsId": "23306",
      "name": "한국자산신탁.센터필드",
      "lat": 37.502783,
      "lng": 127.044247
    },
    {
      "routeId": "104000011",
      "routeNo": "N31",
      "seq": 112,
      "stationId": "122000156",
      "arsId": "23259",
      "name": "선릉역",
      "lat": 37.5047611955,
      "lng": 127.050462265
    },
    {
      "routeId": "104000011",
      "routeNo": "N31",
      "seq": 113,
      "stationId": "122000157",
      "arsId": "23260",
      "name": "포스코빌딩",
      "lat": 37.5060493833,
      "lng": 127.0548888307
    },
    {
      "routeId": "104000011",
      "routeNo": "N31",
      "seq": 114,
      "stationId": "122000148",
      "arsId": "23251",
      "name": "한국무역센터.삼성역",
      "lat": 37.507841,
      "lng": 127.060548
    },
    {
      "routeId": "104000011",
      "routeNo": "N31",
      "seq": 115,
      "stationId": "122000356",
      "arsId": "23473",
      "name": "강남경찰서.강남운전면허시험장",
      "lat": 37.5095036021,
      "lng": 127.0660087348
    },
    {
      "routeId": "104000011",
      "routeNo": "N31",
      "seq": 116,
      "stationId": "123000065",
      "arsId": "24154",
      "name": "잠실종합운동장",
      "lat": 37.510665,
      "lng": 127.073172
    },
    {
      "routeId": "104000011",
      "routeNo": "N31",
      "seq": 117,
      "stationId": "123000068",
      "arsId": "24157",
      "name": "종합운동장사거리",
      "lat": 37.5116128425,
      "lng": 127.0795554593
    },
    {
      "routeId": "104000011",
      "routeNo": "N31",
      "seq": 118,
      "stationId": "123000069",
      "arsId": "24158",
      "name": "잠실새내역4번출구",
      "lat": 37.511447,
      "lng": 127.08436
    },
    {
      "routeId": "104000011",
      "routeNo": "N31",
      "seq": 119,
      "stationId": "123000056",
      "arsId": "24145",
      "name": "잠실트리지움아파트앞",
      "lat": 37.511516,
      "lng": 127.091105
    },
    {
      "routeId": "104000011",
      "routeNo": "N31",
      "seq": 120,
      "stationId": "123000057",
      "arsId": "24146",
      "name": "잠실역.롯데월드",
      "lat": 37.51241161,
      "lng": 127.0981962498
    },
    {
      "routeId": "104000011",
      "routeNo": "N31",
      "seq": 121,
      "stationId": "123000045",
      "arsId": "24134",
      "name": "잠실역1번.11번출구",
      "lat": 37.514064,
      "lng": 127.103242
    },
    {
      "routeId": "104000011",
      "routeNo": "N31",
      "seq": 122,
      "stationId": "123000127",
      "arsId": "24216",
      "name": "잠실진주아파트",
      "lat": 37.5161753691,
      "lng": 127.1096189729
    },
    {
      "routeId": "104000011",
      "routeNo": "N31",
      "seq": 123,
      "stationId": "123000142",
      "arsId": "24231",
      "name": "올림픽회관",
      "lat": 37.5209125924,
      "lng": 127.1151501871
    },
    {
      "routeId": "104000011",
      "routeNo": "N31",
      "seq": 124,
      "stationId": "123000143",
      "arsId": "24232",
      "name": "풍납동극동.쌍용아파트",
      "lat": 37.526842,
      "lng": 127.1187
    },
    {
      "routeId": "104000011",
      "routeNo": "N31",
      "seq": 125,
      "stationId": "124000196",
      "arsId": "25313",
      "name": "강동구청역.농협중앙회",
      "lat": 37.5291461005,
      "lng": 127.1201139304
    },
    {
      "routeId": "104000011",
      "routeNo": "N31",
      "seq": 126,
      "stationId": "124000064",
      "arsId": "25164",
      "name": "강동구청역1번출구.영파여고",
      "lat": 37.53215,
      "lng": 127.121355
    },
    {
      "routeId": "104000011",
      "routeNo": "N31",
      "seq": 127,
      "stationId": "124000063",
      "arsId": "25163",
      "name": "천호역8번출구",
      "lat": 37.535973076,
      "lng": 127.1227694856
    },
    {
      "routeId": "104000011",
      "routeNo": "N31",
      "seq": 128,
      "stationId": "124000062",
      "arsId": "25162",
      "name": "천호역3번출구.현대백화점",
      "lat": 37.5399531076,
      "lng": 127.1240057241
    },
    {
      "routeId": "104000011",
      "routeNo": "N31",
      "seq": 129,
      "stationId": "124000060",
      "arsId": "25160",
      "name": "서울현대요양병원",
      "lat": 37.5420613974,
      "lng": 127.124856045
    },
    {
      "routeId": "104000011",
      "routeNo": "N31",
      "seq": 130,
      "stationId": "124000058",
      "arsId": "25158",
      "name": "천호동공원",
      "lat": 37.546075,
      "lng": 127.126227
    },
    {
      "routeId": "104000011",
      "routeNo": "N31",
      "seq": 131,
      "stationId": "124000056",
      "arsId": "25156",
      "name": "암사역2번출구.암사종합시장",
      "lat": 37.5496007079,
      "lng": 127.127528264
    },
    {
      "routeId": "104000011",
      "routeNo": "N31",
      "seq": 132,
      "stationId": "124000054",
      "arsId": "25154",
      "name": "삼성광나루아파트",
      "lat": 37.5532319019,
      "lng": 127.1288157342
    },
    {
      "routeId": "104000011",
      "routeNo": "N31",
      "seq": 133,
      "stationId": "124000052",
      "arsId": "25152",
      "name": "신암중학교",
      "lat": 37.5546138434,
      "lng": 127.1313205443
    },
    {
      "routeId": "104000011",
      "routeNo": "N31",
      "seq": 134,
      "stationId": "124000050",
      "arsId": "25150",
      "name": "강일중.선사고",
      "lat": 37.554623,
      "lng": 127.136093
    },
    {
      "routeId": "104000011",
      "routeNo": "N31",
      "seq": 135,
      "stationId": "124000048",
      "arsId": "25148",
      "name": "암사3동주민센터.프라이어팰리스",
      "lat": 37.5545587211,
      "lng": 127.1393191473
    },
    {
      "routeId": "104000011",
      "routeNo": "N31",
      "seq": 136,
      "stationId": "124000046",
      "arsId": "25146",
      "name": "명일초등학교",
      "lat": 37.554602,
      "lng": 127.143468
    },
    {
      "routeId": "104000011",
      "routeNo": "N31",
      "seq": 137,
      "stationId": "124000044",
      "arsId": "25144",
      "name": "동부기술교육원.장애인종합복지관",
      "lat": 37.554617,
      "lng": 127.145752
    },
    {
      "routeId": "104000011",
      "routeNo": "N31",
      "seq": 138,
      "stationId": "124000042",
      "arsId": "25142",
      "name": "배재중고등학교",
      "lat": 37.55454,
      "lng": 127.149718
    },
    {
      "routeId": "104000011",
      "routeNo": "N31",
      "seq": 139,
      "stationId": "124000040",
      "arsId": "25140",
      "name": "고덕역",
      "lat": 37.55504,
      "lng": 127.154997
    },
    {
      "routeId": "104000011",
      "routeNo": "N31",
      "seq": 140,
      "stationId": "124000038",
      "arsId": "25138",
      "name": "고덕평생학습관.온조대왕체육관",
      "lat": 37.555507,
      "lng": 127.158091
    },
    {
      "routeId": "104000011",
      "routeNo": "N31",
      "seq": 141,
      "stationId": "124000036",
      "arsId": "25136",
      "name": "고덕그라시움",
      "lat": 37.5557278909,
      "lng": 127.1602719709
    },
    {
      "routeId": "104000011",
      "routeNo": "N31",
      "seq": 142,
      "stationId": "124000034",
      "arsId": "25134",
      "name": "상일동역8번출구",
      "lat": 37.55639,
      "lng": 127.164852
    },
    {
      "routeId": "104000011",
      "routeNo": "N31",
      "seq": 143,
      "stationId": "124000032",
      "arsId": "25132",
      "name": "상일동역6번출구.고덕아르테온",
      "lat": 37.5568294953,
      "lng": 127.1679351284
    },
    {
      "routeId": "104000011",
      "routeNo": "N31",
      "seq": 144,
      "stationId": "124000006",
      "arsId": "25106",
      "name": "해뜨는주유소",
      "lat": 37.559757,
      "lng": 127.170989
    },
    {
      "routeId": "104000011",
      "routeNo": "N31",
      "seq": 145,
      "stationId": "124000004",
      "arsId": "25104",
      "name": "고덕리엔파크1단지",
      "lat": 37.561365,
      "lng": 127.170696
    },
    {
      "routeId": "104000011",
      "routeNo": "N31",
      "seq": 146,
      "stationId": "124000002",
      "arsId": "25102",
      "name": "강동공영차고지",
      "lat": 37.564179,
      "lng": 127.174323
    }
  ]
}